{"timestamp": 1772979913.0226424, "type": "FLIGHT_INFORMATION", "data": {"mavpackettype": "FLIGHT_INFORMATION", "time_boot_ms": 442166982, "arming_time_utc": 0, "takeoff_time_utc": 0, "flight_uuid": 0}}
{"timestamp": 1772979913.029981, "type": "AHRS", "data": {"mavpackettype": "AHRS", "omegaIx": -0.0006712827016599476, "omegaIy": -0.0006905089248903096, "omegaIz": -0.0012202949728816748, "accel_weight": 0.0, "renorm_val": 0.0, "error_rp": 0.002368942368775606, "error_yaw": 0.0014333192957565188}}
{"timestamp": 1772979913.0303946, "type": "AHRS2", "data": {"mavpackettype": "AHRS2", "roll": -0.0015920234145596623, "pitch": -0.0017996716778725386, "yaw": -0.7437191009521484, "altitude": 584.0800170898438, "lat": -353632622, "lng": 1491652379}}
{"timestamp": 1772979913.0312407, "type": "ATTITUDE", "data": {"mavpackettype": "ATTITUDE", "time_boot_ms": 442167042, "roll": 0.0025186038110405207, "pitch": -0.0007365561323240399, "yaw": -0.7703708410263062, "rollspeed": -0.00025661021936684847, "pitchspeed": -0.00016139709623530507, "yawspeed": -0.000748498598113656}}
{"timestamp": 1772979913.0324166, "type": "GLOBAL_POSITION_INT", "data": {"mavpackettype": "GLOBAL_POSITION_INT", "time_boot_ms": 442167042, "lat": -353632622, "lon": 1491652377, "alt": 584080, "relative_alt": 3, "vx": 0, "vy": -2, "vz": 0, "hdg": 31587}}
{"timestamp": 1772979913.032777, "type": "VFR_HUD", "data": {"mavpackettype": "VFR_HUD", "airspeed": 0.023506581783294678, "groundspeed": 0.02350618876516819, "heading": 315, "throttle": 0, "alt": 584.0800170898438, "climb": -0.0001357022556476295}}
{"timestamp": 1772979913.0333736, "type": "SYS_STATUS", "data": {"mavpackettype": "SYS_STATUS", "onboard_control_sensors_present": 1399979055, "onboard_control_sensors_enabled": 1382128687, "onboard_control_sensors_health": 1467063343, "load": 0, "voltage_battery": 12600, "current_battery": 0, "battery_remaining": 51, "drop_rate_comm": 0, "errors_comm": 0, "errors_count1": 0, "errors_count2": 0, "errors_count3": 0, "errors_count4": 0}}
{"timestamp": 1772979913.033451, "type": "POWER_STATUS", "data": {"mavpackettype": "POWER_STATUS", "Vcc": 5000, "Vservo": 0, "flags": 0}}
{"timestamp": 1772979913.0335119, "type": "MEMINFO", "data": {"mavpackettype": "MEMINFO", "brkval": 0, "freemem": 65535, "freemem32": 524288}}
{"timestamp": 1772979913.033651, "type": "NAV_CONTROLLER_OUTPUT", "data": {"mavpackettype": "NAV_CONTROLLER_OUTPUT", "nav_roll": -0.0001322253665421158, "nav_pitch": -2.493770261935424e-05, "nav_bearing": -44, "target_bearing": 0, "wp_dist": 0, "alt_error": 0.0, "aspd_error": 0.0, "xtrack_error": 0.0}}
{"timestamp": 1772979913.0337641, "type": "MISSION_CURRENT", "data": {"mavpackettype": "MISSION_CURRENT", "seq": 0, "total": 1, "mission_state": 2, "mission_mode": 0}}
{"timestamp": 1772979913.0338976, "type": "SERVO_OUTPUT_RAW", "data": {"mavpackettype": "SERVO_OUTPUT_RAW", "time_usec": 4080378216, "port": 0, "servo1_raw": 1000, "servo2_raw": 1000, "servo3_raw": 1000, "servo4_raw": 1000, "servo5_raw": 0, "servo6_raw": 0, "servo7_raw": 0, "servo8_raw": 0, "servo9_raw": 0, "servo10_raw": 0, "servo11_raw": 0, "servo12_raw": 0, "servo13_raw": 0, "servo14_raw": 0, "servo15_raw": 0, "servo16_raw": 0}}
{"timestamp": 1772979913.0340002, "type": "RC_CHANNELS", "data": {"mavpackettype": "RC_CHANNELS", "time_boot_ms": 442167042, "chancount": 8, "chan1_raw": 1500, "chan2_raw": 1500, "chan3_raw": 1000, "chan4_raw": 1500, "chan5_raw": 1800, "chan6_raw": 1000, "chan7_raw": 1000, "chan8_raw": 1800, "chan9_raw": 0, "chan10_raw": 0, "chan11_raw": 0, "chan12_raw": 0, "chan13_raw": 0, "chan14_raw": 0, "chan15_raw": 0, "chan16_raw": 0, "chan17_raw": 0, "chan18_raw": 0, "rssi": 255}}
{"timestamp": 1772979913.0340598, "type": "RAW_IMU", "data": {"mavpackettype": "RAW_IMU", "time_usec": 442167042408, "xacc": 0, "yacc": 0, "zacc": -1001, "xgyro": 0, "ygyro": 0, "zgyro": 0, "xmag": 134, "ymag": 196, "zmag": -528, "id": 0, "temperature": 4500}}
{"timestamp": 1772979913.0340903, "type": "SCALED_IMU2", "data": {"mavpackettype": "SCALED_IMU2", "time_boot_ms": 442167042, "xacc": 0, "yacc": 0, "zacc": -1001, "xgyro": 0, "ygyro": 0, "zgyro": 0, "xmag": 134, "ymag": 196, "zmag": -528, "temperature": 4500}}
{"timestamp": 1772979913.034155, "type": "SCALED_IMU3", "data": {"mavpackettype": "SCALED_IMU3", "time_boot_ms": 442167042, "xacc": 0, "yacc": 0, "zacc": 0, "xgyro": 0, "ygyro": 0, "zgyro": 0, "xmag": 134, "ymag": 196, "zmag": -528, "temperature": 0}}
{"timestamp": 1772979913.034245, "type": "SCALED_PRESSURE", "data": {"mavpackettype": "SCALED_PRESSURE", "time_boot_ms": 442167042, "press_abs": 945.0282592773438, "press_diff": 0.0, "temperature": 3120, "temperature_press_diff": 0}}
{"timestamp": 1772979913.0343785, "type": "SCALED_PRESSURE2", "data": {"mavpackettype": "SCALED_PRESSURE2", "time_boot_ms": 442167042, "press_abs": 945.023193359375, "press_diff": 0.0, "temperature": 3120, "temperature_press_diff": 0}}
{"timestamp": 1772979913.0344577, "type": "GPS_RAW_INT", "data": {"mavpackettype": "GPS_RAW_INT", "time_usec": 442166963000, "fix_type": 6, "lat": -353632622, "lon": 1491652379, "alt": 584090, "eph": 121, "epv": 200, "vel": 0, "cog": 22939, "satellites_visible": 10, "alt_ellipsoid": 584090, "h_acc": 300, "v_acc": 300, "vel_acc": 0, "hdg_acc": 0, "yaw": 0}}
{"timestamp": 1772979913.035069, "type": "SYSTEM_TIME", "data": {"mavpackettype": "SYSTEM_TIME", "time_unix_usec": 1772824736879345, "time_boot_ms": 442167042}}
{"timestamp": 1772979913.035267, "type": "SIMSTATE", "data": {"mavpackettype": "SIMSTATE", "roll": 0.0, "pitch": 0.0, "yaw": -0.747543454170227, "xacc": -1.2433897855735815e-21, "yacc": 4.2614244895457925e-21, "zacc": -9.806650161743164, "xgyro": 8.407790785948902e-43, "ygyro": 8.407790785948902e-43, "zgyro": 8.940695806813892e-06, "lat": -353632622, "lng": 1491652379}}
{"timestamp": 1772979913.0353904, "type": "WIND", "data": {"mavpackettype": "WIND", "direction": -180.0, "speed": 0.0, "speed_z": 0.0}}
{"timestamp": 1772979913.0358796, "type": "TERRAIN_REPORT", "data": {"mavpackettype": "TERRAIN_REPORT", "lat": -353632622, "lon": 1491652377, "spacing": 100, "terrain_height": 584.0801391601562, "current_height": -0.0001220703125, "pending": 0, "loaded": 616}}
{"timestamp": 1772979913.0359821, "type": "EKF_STATUS_REPORT", "data": {"mavpackettype": "EKF_STATUS_REPORT", "flags": 831, "velocity_variance": 0.008739476092159748, "pos_horiz_variance": 0.005150298587977886, "pos_vert_variance": 1.679310662439093e-05, "compass_variance": 0.013883390463888645, "terrain_alt_variance": 0.0, "airspeed_variance": 0.0}}
{"timestamp": 1772979913.0362916, "type": "LOCAL_POSITION_NED", "data": {"mavpackettype": "LOCAL_POSITION_NED", "time_boot_ms": 442167042, "x": -0.010976970195770264, "y": 0.026588555425405502, "z": 0.006149418652057648, "vx": 0.00020712291006930172, "vy": -0.023505276069045067, "vz": 0.0001357022556476295}}
{"timestamp": 1772979913.0364168, "type": "VIBRATION", "data": {"mavpackettype": "VIBRATION", "time_usec": 442167042408, "vibration_x": 0.002644866704940796, "vibration_y": 0.0028182556852698326, "vibration_z": 0.002813077764585614, "clipping_0": 0, "clipping_1": 0, "clipping_2": 0}}
{"timestamp": 1772979913.0365698, "type": "BATTERY_STATUS", "data": {"mavpackettype": "BATTERY_STATUS", "id": 0, "battery_function": 0, "type": 0, "temperature": 32767, "voltages": [12600, 65535, 65535, 65535, 65535, 65535, 65535, 65535, 65535, 65535], "current_battery": 0, "current_consumed": 1600, "energy_consumed": 726, "battery_remaining": 51, "time_remaining": 0, "charge_state": 1, "voltages_ext": [0, 0, 0, 0], "mode": 0, "fault_bitmask": 0}}
{"timestamp": 1772979913.0366764, "type": "ESC_TELEMETRY_1_TO_4", "data": {"mavpackettype": "ESC_TELEMETRY_1_TO_4", "temperature": [32, 32, 32, 32], "voltage": [1679, 1679, 1679, 1679], "current": [80, 80, 80, 80], "totalcurrent": [1, 1, 1, 1], "rpm": [0, 0, 0, 0], "count": [48288, 48288, 48288, 48288]}}
{"timestamp": 1772979913.0800116, "type": "AHRS", "data": {"mavpackettype": "AHRS", "omegaIx": -0.0006683766259811819, "omegaIy": -0.0006875907420180738, "omegaIz": -0.0012158644385635853, "accel_weight": 0.0, "renorm_val": 0.0, "error_rp": 0.0023767990060150623, "error_yaw": 0.0014635713305324316}}
{"timestamp": 1772979913.0806766, "type": "AHRS2", "data": {"mavpackettype": "AHRS2", "roll": -0.0015958980657160282, "pitch": -0.0018101194873452187, "yaw": -0.7437238097190857, "altitude": 584.0800170898438, "lat": -353632622, "lng": 1491652379}}
{"timestamp": 1772979913.0807621, "type": "ATTITUDE", "data": {"mavpackettype": "ATTITUDE", "time_boot_ms": 442167292, "roll": 0.002523435279726982, "pitch": -0.0007394480635412037, "yaw": -0.7703745365142822, "rollspeed": -0.00027867223252542317, "pitchspeed": -0.00017479772213846445, "yawspeed": -0.0007313884561881423}}
{"timestamp": 1772979913.0814288, "type": "GLOBAL_POSITION_INT", "data": {"mavpackettype": "GLOBAL_POSITION_INT", "time_boot_ms": 442167292, "lat": -353632622, "lon": 1491652377, "alt": 584080, "relative_alt": 3, "vx": 0, "vy": -2, "vz": 0, "hdg": 31587}}
{"timestamp": 1772979913.081658, "type": "VFR_HUD", "data": {"mavpackettype": "VFR_HUD", "airspeed": 0.023572366684675217, "groundspeed": 0.023572202771902084, "heading": 315, "throttle": 0, "alt": 584.0800170898438, "climb": -8.80157167557627e-05}}
{"timestamp": 1772979913.0837681, "type": "SYS_STATUS", "data": {"mavpackettype": "SYS_STATUS", "onboard_control_sensors_present": 1399979055, "onboard_control_sensors_enabled": 1382128687, "onboard_control_sensors_health": 1467063343, "load": 0, "voltage_battery": 12600, "current_battery": 0, "battery_remaining": 51, "drop_rate_comm": 0, "errors_comm": 0, "errors_count1": 0, "errors_count2": 0, "errors_count3": 0, "errors_count4": 0}}
{"timestamp": 1772979913.086271, "type": "POWER_STATUS", "data": {"mavpackettype": "POWER_STATUS", "Vcc": 5000, "Vservo": 0, "flags": 0}}
{"timestamp": 1772979913.086448, "type": "MEMINFO", "data": {"mavpackettype": "MEMINFO", "brkval": 0, "freemem": 65535, "freemem32": 524288}}
{"timestamp": 1772979913.0869644, "type": "NAV_CONTROLLER_OUTPUT", "data": {"mavpackettype": "NAV_CONTROLLER_OUTPUT", "nav_roll": -0.00013222539564594626, "nav_pitch": -2.4937698981375434e-05, "nav_bearing": -44, "target_bearing": 0, "wp_dist": 0, "alt_error": 0.0, "aspd_error": 0.0, "xtrack_error": 0.0}}
{"timestamp": 1772979913.0873823, "type": "MISSION_CURRENT", "data": {"mavpackettype": "MISSION_CURRENT", "seq": 0, "total": 1, "mission_state": 2, "mission_mode": 0}}
{"timestamp": 1772979913.0876436, "type": "SERVO_OUTPUT_RAW", "data": {"mavpackettype": "SERVO_OUTPUT_RAW", "time_usec": 4080628116, "port": 0, "servo1_raw": 1000, "servo2_raw": 1000, "servo3_raw": 1000, "servo4_raw": 1000, "servo5_raw": 0, "servo6_raw": 0, "servo7_raw": 0, "servo8_raw": 0, "servo9_raw": 0, "servo10_raw": 0, "servo11_raw": 0, "servo12_raw": 0, "servo13_raw": 0, "servo14_raw": 0, "servo15_raw": 0, "servo16_raw": 0}}
{"timestamp": 1772979913.0877395, "type": "RC_CHANNELS", "data": {"mavpackettype": "RC_CHANNELS", "time_boot_ms": 442167292, "chancount": 8, "chan1_raw": 1500, "chan2_raw": 1500, "chan3_raw": 1000, "chan4_raw": 1500, "chan5_raw": 1800, "chan6_raw": 1000, "chan7_raw": 1000, "chan8_raw": 1800, "chan9_raw": 0, "chan10_raw": 0, "chan11_raw": 0, "chan12_raw": 0, "chan13_raw": 0, "chan14_raw": 0, "chan15_raw": 0, "chan16_raw": 0, "chan17_raw": 0, "chan18_raw": 0, "rssi": 255}}
{"timestamp": 1772979913.087946, "type": "RAW_IMU", "data": {"mavpackettype": "RAW_IMU", "time_usec": 442167292308, "xacc": 0, "yacc": 0, "zacc": -1001, "xgyro": 0, "ygyro": 0, "zgyro": 0, "xmag": 134, "ymag": 196, "zmag": -528, "id": 0, "temperature": 4500}}
{"timestamp": 1772979913.088082, "type": "SCALED_IMU2", "data": {"mavpackettype": "SCALED_IMU2", "time_boot_ms": 442167292, "xacc": 0, "yacc": 0, "zacc": -1001, "xgyro": 0, "ygyro": 0, "zgyro": 0, "xmag": 134, "ymag": 196, "zmag": -528, "temperature": 4500}}
{"timestamp": 1772979913.088595, "type": "SCALED_IMU3", "data": {"mavpackettype": "SCALED_IMU3", "time_boot_ms": 442167292, "xacc": 0, "yacc": 0, "zacc": 0, "xgyro": 0, "ygyro": 0, "zgyro": 0, "xmag": 134, "ymag": 196, "zmag": -528, "temperature": 0}}
{"timestamp": 1772979913.0894837, "type": "SCALED_PRESSURE", "data": {"mavpackettype": "SCALED_PRESSURE", "time_boot_ms": 442167292, "press_abs": 945.0282592773438, "press_diff": 0.0, "temperature": 3120, "temperature_press_diff": 0}}
{"timestamp": 1772979913.0896275, "type": "SCALED_PRESSURE2", "data": {"mavpackettype": "SCALED_PRESSURE2", "time_boot_ms": 442167292, "press_abs": 945.021240234375, "press_diff": 0.0, "temperature": 3120, "temperature_press_diff": 0}}
{"timestamp": 1772979913.0900693, "type": "GPS_RAW_INT", "data": {"mavpackettype": "GPS_RAW_INT", "time_usec": 442167163000, "fix_type": 6, "lat": -353632622, "lon": 1491652379, "alt": 584090, "eph": 121, "epv": 200, "vel": 0, "cog": 22939, "satellites_visible": 10, "alt_ellipsoid": 584090, "h_acc": 300, "v_acc": 300, "vel_acc": 0, "hdg_acc": 0, "yaw": 0}}
{"timestamp": 1772979913.0903974, "type": "SYSTEM_TIME", "data": {"mavpackettype": "SYSTEM_TIME", "time_unix_usec": 1772824737129245, "time_boot_ms": 442167292}}
{"timestamp": 1772979913.0905833, "type": "SIMSTATE", "data": {"mavpackettype": "SIMSTATE", "roll": 0.0, "pitch": 0.0, "yaw": -0.747543454170227, "xacc": -1.2433897855735815e-21, "yacc": 4.2614244895457925e-21, "zacc": -9.806650161743164, "xgyro": 8.407790785948902e-43, "ygyro": 8.407790785948902e-43, "zgyro": 8.940695806813892e-06, "lat": -353632622, "lng": 1491652379}}
{"timestamp": 1772979913.0907032, "type": "WIND", "data": {"mavpackettype": "WIND", "direction": -180.0, "speed": 0.0, "speed_z": 0.0}}
{"timestamp": 1772979913.091012, "type": "TERRAIN_REPORT", "data": {"mavpackettype": "TERRAIN_REPORT", "lat": -353632622, "lon": 1491652377, "spacing": 100, "terrain_height": 584.0801391601562, "current_height": -0.0001220703125, "pending": 0, "loaded": 616}}
{"timestamp": 1772979913.0912352, "type": "EKF_STATUS_REPORT", "data": {"mavpackettype": "EKF_STATUS_REPORT", "flags": 831, "velocity_variance": 0.008731668815016747, "pos_horiz_variance": 0.005150506738573313, "pos_vert_variance": 1.4589327292924281e-05, "compass_variance": 0.013831350952386856, "terrain_alt_variance": 0.0, "airspeed_variance": 0.0}}
{"timestamp": 1772979913.0916772, "type": "LOCAL_POSITION_NED", "data": {"mavpackettype": "LOCAL_POSITION_NED", "time_boot_ms": 442167292, "x": -0.010964087210595608, "y": 0.02661721408367157, "z": 0.006167449988424778, "vx": 0.0002607442729640752, "vy": -0.02357075922191143, "vz": 8.80157167557627e-05}}
{"timestamp": 1772979913.0917943, "type": "VIBRATION", "data": {"mavpackettype": "VIBRATION", "time_usec": 442167292308, "vibration_x": 0.002740967320278287, "vibration_y": 0.0026414550375193357, "vibration_z": 0.002525822725147009, "clipping_0": 0, "clipping_1": 0, "clipping_2": 0}}
{"timestamp": 1772979913.0919614, "type": "BATTERY_STATUS", "data": {"mavpackettype": "BATTERY_STATUS", "id": 0, "battery_function": 0, "type": 0, "temperature": 32767, "voltages": [12600, 65535, 65535, 65535, 65535, 65535, 65535, 65535, 65535, 65535], "current_battery": 0, "current_consumed": 1600, "energy_consumed": 726, "battery_remaining": 51, "time_remaining": 0, "charge_state": 1, "voltages_ext": [0, 0, 0, 0], "mode": 0, "fault_bitmask": 0}}
{"timestamp": 1772979913.0920386, "type": "ESC_TELEMETRY_1_TO_4", "data": {"mavpackettype": "ESC_TELEMETRY_1_TO_4", "temperature": [32, 32, 32, 32], "voltage": [1679, 1679, 1679, 1679], "current": [80, 80, 80, 80], "totalcurrent": [1, 1, 1, 1], "rpm": [0, 0, 0, 0], "count": [48388, 48388, 48388, 48388]}}
{"timestamp": 1772979913.1195576, "type": "FLIGHT_INFORMATION", "data": {"mavpackettype": "FLIGHT_INFORMATION", "time_boot_ms": 442167482, "arming_time_utc": 0, "takeoff_time_utc": 0, "flight_uuid": 0}}
{"timestamp": 1772979913.13135, "type": "AHRS", "data": {"mavpackettype": "AHRS", "omegaIx": -0.000666318170260638, "omegaIy": -0.0006855541723780334, "omegaIz": -0.0012144690845161676, "accel_weight": 0.0, "renorm_val": 0.0, "error_rp": 0.002367767971009016, "error_yaw": 0.0014836591435596347}}
{"timestamp": 1772979913.1320424, "type": "AHRS2", "data": {"mavpackettype": "AHRS2", "roll": -0.0016012248815968633, "pitch": -0.0018192845163866878, "yaw": -0.7437357902526855, "altitude": 584.0800170898438, "lat": -353632622, "lng": 1491652379}}
{"timestamp": 1772979913.1321032, "type": "ATTITUDE", "data": {"mavpackettype": "ATTITUDE", "time_boot_ms": 442167542, "roll": 0.0025260078255087137, "pitch": -0.0007417774177156389, "yaw": -0.7703696489334106, "rollspeed": -0.0002456100773997605, "pitchspeed": -0.00029519532108679414, "yawspeed": -0.0007448883261531591}}
{"timestamp": 1772979913.1321406, "type": "GLOBAL_POSITION_INT", "data": {"mavpackettype": "GLOBAL_POSITION_INT", "time_boot_ms": 442167542, "lat": -353632622, "lon": 1491652377, "alt": 584080, "relative_alt": 3, "vx": 0, "vy": -2, "vz": 0, "hdg": 31587}}
{"timestamp": 1772979913.132173, "type": "VFR_HUD", "data": {"mavpackettype": "VFR_HUD", "airspeed": 0.023776527494192123, "groundspeed": 0.023776326328516006, "heading": 315, "throttle": 0, "alt": 584.0800170898438, "climb": -9.691144077805802e-05}}
{"timestamp": 1772979913.136289, "type": "SYS_STATUS", "data": {"mavpackettype": "SYS_STATUS", "onboard_control_sensors_present": 1399979055, "onboard_control_sensors_enabled": 1382128687, "onboard_control_sensors_health": 1467063343, "load": 0, "voltage_battery": 12600, "current_battery": 0, "battery_remaining": 51, "drop_rate_comm": 0, "errors_comm": 0, "errors_count1": 0, "errors_count2": 0, "errors_count3": 0, "errors_count4": 0}}
{"timestamp": 1772979913.136581, "type": "POWER_STATUS", "data": {"mavpackettype": "POWER_STATUS", "Vcc": 5000, "Vservo": 0, "flags": 0}}
{"timestamp": 1772979913.136761, "type": "MEMINFO", "data": {"mavpackettype": "MEMINFO", "brkval": 0, "freemem": 65535, "freemem32": 524288}}
{"timestamp": 1772979913.1369522, "type": "NAV_CONTROLLER_OUTPUT", "data": {"mavpackettype": "NAV_CONTROLLER_OUTPUT", "nav_roll": -0.0001322253665421158, "nav_pitch": -2.4937675334513187e-05, "nav_bearing": -44, "target_bearing": 0, "wp_dist": 0, "alt_error": 0.0, "aspd_error": 0.0, "xtrack_error": 0.0}}
{"timestamp": 1772979913.1373105, "type": "MISSION_CURRENT", "data": {"mavpackettype": "MISSION_CURRENT", "seq": 0, "total": 1, "mission_state": 2, "mission_mode": 0}}
{"timestamp": 1772979913.1376238, "type": "SERVO_OUTPUT_RAW", "data": {"mavpackettype": "SERVO_OUTPUT_RAW", "time_usec": 4080878016, "port": 0, "servo1_raw": 1000, "servo2_raw": 1000, "servo3_raw": 1000, "servo4_raw": 1000, "servo5_raw": 0, "servo6_raw": 0, "servo7_raw": 0, "servo8_raw": 0, "servo9_raw": 0, "servo10_raw": 0, "servo11_raw": 0, "servo12_raw": 0, "servo13_raw": 0, "servo14_raw": 0, "servo15_raw": 0, "servo16_raw": 0}}
{"timestamp": 1772979913.1377325, "type": "RC_CHANNELS", "data": {"mavpackettype": "RC_CHANNELS", "time_boot_ms": 442167542, "chancount": 8, "chan1_raw": 1500, "chan2_raw": 1500, "chan3_raw": 1000, "chan4_raw": 1500, "chan5_raw": 1800, "chan6_raw": 1000, "chan7_raw": 1000, "chan8_raw": 1800, "chan9_raw": 0, "chan10_raw": 0, "chan11_raw": 0, "chan12_raw": 0, "chan13_raw": 0, "chan14_raw": 0, "chan15_raw": 0, "chan16_raw": 0, "chan17_raw": 0, "chan18_raw": 0, "rssi": 255}}
{"timestamp": 1772979913.1380427, "type": "RAW_IMU", "data": {"mavpackettype": "RAW_IMU", "time_usec": 442167542208, "xacc": 0, "yacc": 0, "zacc": -1001, "xgyro": 0, "ygyro": 0, "zgyro": 0, "xmag": 134, "ymag": 196, "zmag": -528, "id": 0, "temperature": 4500}}
{"timestamp": 1772979913.138135, "type": "SCALED_IMU2", "data": {"mavpackettype": "SCALED_IMU2", "time_boot_ms": 442167542, "xacc": 0, "yacc": 0, "zacc": -1001, "xgyro": 0, "ygyro": 0, "zgyro": 0, "xmag": 134, "ymag": 196, "zmag": -528, "temperature": 4500}}
{"timestamp": 1772979913.1382375, "type": "SCALED_IMU3", "data": {"mavpackettype": "SCALED_IMU3", "time_boot_ms": 442167542, "xacc": 0, "yacc": 0, "zacc": 0, "xgyro": 0, "ygyro": 0, "zgyro": 0, "xmag": 134, "ymag": 196, "zmag": -528, "temperature": 0}}
{"timestamp": 1772979913.1384706, "type": "SCALED_PRESSURE", "data": {"mavpackettype": "SCALED_PRESSURE", "time_boot_ms": 442167542, "press_abs": 945.0282592773438, "press_diff": 0.0, "temperature": 3120, "temperature_press_diff": 0}}
{"timestamp": 1772979913.13858, "type": "SCALED_PRESSURE2", "data": {"mavpackettype": "SCALED_PRESSURE2", "time_boot_ms": 442167542, "press_abs": 945.02490234375, "press_diff": 0.0, "temperature": 3120, "temperature_press_diff": 0}}
{"timestamp": 1772979913.138688, "type": "GPS_RAW_INT", "data": {"mavpackettype": "GPS_RAW_INT", "time_usec": 442167363000, "fix_type": 6, "lat": -353632622, "lon": 1491652379, "alt": 584090, "eph": 121, "epv": 200, "vel": 0, "cog": 22939, "satellites_visible": 10, "alt_ellipsoid": 584090, "h_acc": 300, "v_acc": 300, "vel_acc": 0, "hdg_acc": 0, "yaw": 0}}
{"timestamp": 1772979913.1389651, "type": "SYSTEM_TIME", "data": {"mavpackettype": "SYSTEM_TIME", "time_unix_usec": 1772824737379145, "time_boot_ms": 442167542}}
{"timestamp": 1772979913.1393483, "type": "SIMSTATE", "data": {"mavpackettype": "SIMSTATE", "roll": 0.0, "pitch": 0.0, "yaw": -0.747543454170227, "xacc": -1.2433897855735815e-21, "yacc": 4.2614244895457925e-21, "zacc": -9.806650161743164, "xgyro": 8.407790785948902e-43, "ygyro": 8.407790785948902e-43, "zgyro": 8.940695806813892e-06, "lat": -353632622, "lng": 1491652379}}
{"timestamp": 1772979913.1395333, "type": "WIND", "data": {"mavpackettype": "WIND", "direction": -180.0, "speed": 0.0, "speed_z": 0.0}}
{"timestamp": 1772979913.1397548, "type": "TERRAIN_REPORT", "data": {"mavpackettype": "TERRAIN_REPORT", "lat": -353632622, "lon": 1491652377, "spacing": 100, "terrain_height": 584.0801391601562, "current_height": -0.0001220703125, "pending": 0, "loaded": 616}}
{"timestamp": 1772979913.1399333, "type": "EKF_STATUS_REPORT", "data": {"mavpackettype": "EKF_STATUS_REPORT", "flags": 831, "velocity_variance": 0.008759994059801102, "pos_horiz_variance": 0.005153566598892212, "pos_vert_variance": 1.3231941920821555e-05, "compass_variance": 0.013827920891344547, "terrain_alt_variance": 0.0, "airspeed_variance": 0.0}}
{"timestamp": 1772979913.1400766, "type": "LOCAL_POSITION_NED", "data": {"mavpackettype": "LOCAL_POSITION_NED", "time_boot_ms": 442167542, "x": -0.010936523787677288, "y": 0.02642913907766342, "z": 0.006179931107908487, "vx": 0.00036112091038376093, "vy": -0.02377358451485634, "vz": 9.691144077805802e-05}}
{"timestamp": 1772979913.1402779, "type": "VIBRATION", "data": {"mavpackettype": "VIBRATION", "time_usec": 442167542208, "vibration_x": 0.002772032516077161, "vibration_y": 0.003022450488060713, "vibration_z": 0.002866649767383933, "clipping_0": 0, "clipping_1": 0, "clipping_2": 0}}
{"timestamp": 1772979913.1404343, "type": "BATTERY_STATUS", "data": {"mavpackettype": "BATTERY_STATUS", "id": 0, "battery_function": 0, "type": 0, "temperature": 32767, "voltages": [12600, 65535, 65535, 65535, 65535, 65535, 65535, 65535, 65535, 65535], "current_battery": 0, "current_consumed": 1600, "energy_consumed": 726, "battery_remaining": 51, "time_remaining": 0, "charge_state": 1, "voltages_ext": [0, 0, 0, 0], "mode": 0, "fault_bitmask": 0}}
{"timestamp": 1772979913.1405609, "type": "ESC_TELEMETRY_1_TO_4", "data": {"mavpackettype": "ESC_TELEMETRY_1_TO_4", "temperature": [32, 32, 32, 32], "voltage": [1679, 1679, 1679, 1679], "current": [80, 80, 80, 80], "totalcurrent": [1, 1, 1, 1], "rpm": [0, 0, 0, 0], "count": [48488, 48488, 48488, 48488]}}
{"timestamp": 1772979913.181681, "type": "AHRS", "data": {"mavpackettype": "AHRS", "omegaIx": -0.0006609405390918255, "omegaIy": -0.0006801474373787642, "omegaIz": -0.0012108442606404424, "accel_weight": 0.0, "renorm_val": 0.0, "error_rp": 0.0023923551198095083, "error_yaw": 0.0015178397297859192}}
{"timestamp": 1772979913.1818783, "type": "AHRS2", "data": {"mavpackettype": "AHRS2", "roll": -0.0016084155067801476, "pitch": -0.0018273668829351664, "yaw": -0.7437363266944885, "altitude": 584.0800170898438, "lat": -353632622, "lng": 1491652379}}
{"timestamp": 1772979913.1826484, "type": "ATTITUDE", "data": {"mavpackettype": "ATTITUDE", "time_boot_ms": 442167792, "roll": 0.002518297638744116, "pitch": -0.0007468565599992871, "yaw": -0.7703683376312256, "rollspeed": -0.00031498202588409185, "pitchspeed": -0.0002142840821761638, "yawspeed": -0.0008062397828325629}}
{"timestamp": 1772979913.1831822, "type": "GLOBAL_POSITION_INT", "data": {"mavpackettype": "GLOBAL_POSITION_INT", "time_boot_ms": 442167792, "lat": -353632622, "lon": 1491652377, "alt": 584080, "relative_alt": 3, "vx": 0, "vy": -2, "vz": 0, "hdg": 31587}}
{"timestamp": 1772979913.1844292, "type": "VFR_HUD", "data": {"mavpackettype": "VFR_HUD", "airspeed": 0.0239405557513237, "groundspeed": 0.0239399541169405, "heading": 315, "throttle": 0, "alt": 584.0800170898438, "climb": -0.0001697527477517724}}
{"timestamp": 1772979913.186065, "type": "SYS_STATUS", "data": {"mavpackettype": "SYS_STATUS", "onboard_control_sensors_present": 1399979055, "onboard_control_sensors_enabled": 1382128687, "onboard_control_sensors_health": 1467063343, "load": 0, "voltage_battery": 12600, "current_battery": 0, "battery_remaining": 51, "drop_rate_comm": 0, "errors_comm": 0, "errors_count1": 0, "errors_count2": 0, "errors_count3": 0, "errors_count4": 0}}
{"timestamp": 1772979913.1865976, "type": "POWER_STATUS", "data": {"mavpackettype": "POWER_STATUS", "Vcc": 5000, "Vservo": 0, "flags": 0}}
{"timestamp": 1772979913.1870508, "type": "MEMINFO", "data": {"mavpackettype": "MEMINFO", "brkval": 0, "freemem": 65535, "freemem32": 524288}}
{"timestamp": 1772979913.1872244, "type": "NAV_CONTROLLER_OUTPUT", "data": {"mavpackettype": "NAV_CONTROLLER_OUTPUT", "nav_roll": -0.0001322253665421158, "nav_pitch": -2.4937653506640345e-05, "nav_bearing": -44, "target_bearing": 0, "wp_dist": 0, "alt_error": 0.0, "aspd_error": 0.0, "xtrack_error": 0.0}}
{"timestamp": 1772979913.1882298, "type": "MISSION_CURRENT", "data": {"mavpackettype": "MISSION_CURRENT", "seq": 0, "total": 1, "mission_state": 2, "mission_mode": 0}}
{"timestamp": 1772979913.188732, "type": "SERVO_OUTPUT_RAW", "data": {"mavpackettype": "SERVO_OUTPUT_RAW", "time_usec": 4081128749, "port": 0, "servo1_raw": 1000, "servo2_raw": 1000, "servo3_raw": 1000, "servo4_raw": 1000, "servo5_raw": 0, "servo6_raw": 0, "servo7_raw": 0, "servo8_raw": 0, "servo9_raw": 0, "servo10_raw": 0, "servo11_raw": 0, "servo12_raw": 0, "servo13_raw": 0, "servo14_raw": 0, "servo15_raw": 0, "servo16_raw": 0}}
{"timestamp": 1772979913.1889567, "type": "RC_CHANNELS", "data": {"mavpackettype": "RC_CHANNELS", "time_boot_ms": 442167792, "chancount": 8, "chan1_raw": 1500, "chan2_raw": 1500, "chan3_raw": 1000, "chan4_raw": 1500, "chan5_raw": 1800, "chan6_raw": 1000, "chan7_raw": 1000, "chan8_raw": 1800, "chan9_raw": 0, "chan10_raw": 0, "chan11_raw": 0, "chan12_raw": 0, "chan13_raw": 0, "chan14_raw": 0, "chan15_raw": 0, "chan16_raw": 0, "chan17_raw": 0, "chan18_raw": 0, "rssi": 255}}
{"timestamp": 1772979913.1891046, "type": "RAW_IMU", "data": {"mavpackettype": "RAW_IMU", "time_usec": 442167792941, "xacc": 0, "yacc": 0, "zacc": -1001, "xgyro": 0, "ygyro": 0, "zgyro": 0, "xmag": 134, "ymag": 196, "zmag": -528, "id": 0, "temperature": 4500}}
{"timestamp": 1772979913.189191, "type": "SCALED_IMU2", "data": {"mavpackettype": "SCALED_IMU2", "time_boot_ms": 442167792, "xacc": 0, "yacc": 0, "zacc": -1000, "xgyro": 0, "ygyro": 0, "zgyro": 0, "xmag": 134, "ymag": 196, "zmag": -528, "temperature": 4500}}
{"timestamp": 1772979913.1892955, "type": "SCALED_IMU3", "data": {"mavpackettype": "SCALED_IMU3", "time_boot_ms": 442167792, "xacc": 0, "yacc": 0, "zacc": 0, "xgyro": 0, "ygyro": 0, "zgyro": 0, "xmag": 134, "ymag": 196, "zmag": -528, "temperature": 0}}
{"timestamp": 1772979913.1895194, "type": "SCALED_PRESSURE", "data": {"mavpackettype": "SCALED_PRESSURE", "time_boot_ms": 442167792, "press_abs": 945.0282592773438, "press_diff": 0.0, "temperature": 3120, "temperature_press_diff": 0}}
{"timestamp": 1772979913.1896317, "type": "SCALED_PRESSURE2", "data": {"mavpackettype": "SCALED_PRESSURE2", "time_boot_ms": 442167792, "press_abs": 945.0089111328125, "press_diff": 0.0, "temperature": 3120, "temperature_press_diff": 0}}
{"timestamp": 1772979913.1897259, "type": "GPS_RAW_INT", "data": {"mavpackettype": "GPS_RAW_INT", "time_usec": 442167763000, "fix_type": 6, "lat": -353632622, "lon": 1491652379, "alt": 584090, "eph": 121, "epv": 200, "vel": 0, "cog": 22939, "satellites_visible": 10, "alt_ellipsoid": 584090, "h_acc": 300, "v_acc": 300, "vel_acc": 0, "hdg_acc": 0, "yaw": 0}}
{"timestamp": 1772979913.190033, "type": "SYSTEM_TIME", "data": {"mavpackettype": "SYSTEM_TIME", "time_unix_usec": 1772824737629878, "time_boot_ms": 442167792}}
{"timestamp": 1772979913.190331, "type": "SIMSTATE", "data": {"mavpackettype": "SIMSTATE", "roll": 0.0, "pitch": 0.0, "yaw": -0.747543454170227, "xacc": -1.2433897855735815e-21, "yacc": 4.2614244895457925e-21, "zacc": -9.806650161743164, "xgyro": 8.407790785948902e-43, "ygyro": 8.407790785948902e-43, "zgyro": 8.940695806813892e-06, "lat": -353632622, "lng": 1491652379}}
{"timestamp": 1772979913.190467, "type": "WIND", "data": {"mavpackettype": "WIND", "direction": -180.0, "speed": 0.0, "speed_z": 0.0}}
{"timestamp": 1772979913.1905665, "type": "TERRAIN_REPORT", "data": {"mavpackettype": "TERRAIN_REPORT", "lat": -353632622, "lon": 1491652377, "spacing": 100, "terrain_height": 584.0801391601562, "current_height": -0.0001220703125, "pending": 0, "loaded": 616}}
{"timestamp": 1772979913.1906557, "type": "EKF_STATUS_REPORT", "data": {"mavpackettype": "EKF_STATUS_REPORT", "flags": 831, "velocity_variance": 0.00879160687327385, "pos_horiz_variance": 0.005153394769877195, "pos_vert_variance": 1.040276765706949e-05, "compass_variance": 0.013882224448025227, "terrain_alt_variance": 0.0, "airspeed_variance": 0.0}}
{"timestamp": 1772979913.1908858, "type": "LOCAL_POSITION_NED", "data": {"mavpackettype": "LOCAL_POSITION_NED", "time_boot_ms": 442167792, "x": -0.010900158435106277, "y": 0.02619314193725586, "z": 0.006206197664141655, "vx": 0.00041123569826595485, "vy": -0.023936422541737556, "vz": 0.0001697527477517724}}
{"timestamp": 1772979913.1911042, "type": "VIBRATION", "data": {"mavpackettype": "VIBRATION", "time_usec": 442167792941, "vibration_x": 0.002889038296416402, "vibration_y": 0.003161864122375846, "vibration_z": 0.0030044347513467073, "clipping_0": 0, "clipping_1": 0, "clipping_2": 0}}
{"timestamp": 1772979913.1913579, "type": "BATTERY_STATUS", "data": {"mavpackettype": "BATTERY_STATUS", "id": 0, "battery_function": 0, "type": 0, "temperature": 32767, "voltages": [12600, 65535, 65535, 65535, 65535, 65535, 65535, 65535, 65535, 65535], "current_battery": 0, "current_consumed": 1600, "energy_consumed": 726, "battery_remaining": 51, "time_remaining": 0, "charge_state": 1, "voltages_ext": [0, 0, 0, 0], "mode": 0, "fault_bitmask": 0}}
{"timestamp": 1772979913.1915495, "type": "ESC_TELEMETRY_1_TO_4", "data": {"mavpackettype": "ESC_TELEMETRY_1_TO_4", "temperature": [32, 32, 32, 32], "voltage": [1679, 1679, 1679, 1679], "current": [80, 80, 80, 80], "totalcurrent": [1, 1, 1, 1], "rpm": [0, 0, 0, 0], "count": [48588, 48588, 48588, 48588]}}
{"timestamp": 1772979913.2145314, "type": "HEARTBEAT", "data": {"mavpackettype": "HEARTBEAT", "type": 2, "autopilot": 3, "base_mode": 81, "custom_mode": 0, "system_status": 3, "mavlink_version": 3}}
{"timestamp": 1772979913.214977, "type": "FLIGHT_INFORMATION", "data": {"mavpackettype": "FLIGHT_INFORMATION", "time_boot_ms": 442167980, "arming_time_utc": 0, "takeoff_time_utc": 0, "flight_uuid": 0}}
{"timestamp": 1772979913.227307, "type": "AHRS", "data": {"mavpackettype": "AHRS", "omegaIx": -0.0006576072773896158, "omegaIy": -0.0006767704617232084, "omegaIz": -0.0012071144301444292, "accel_weight": 0.0, "renorm_val": 0.0, "error_rp": 0.0023882905952632427, "error_yaw": 0.0015290213050320745}}
{"timestamp": 1772979913.2278566, "type": "AHRS2", "data": {"mavpackettype": "AHRS2", "roll": -0.0015941201709210873, "pitch": -0.0018157005542889237, "yaw": -0.7437323927879333, "altitude": 584.0800170898438, "lat": -353632622, "lng": 1491652379}}
{"timestamp": 1772979913.2282639, "type": "ATTITUDE", "data": {"mavpackettype": "ATTITUDE", "time_boot_ms": 442168042, "roll": 0.0025271836202591658, "pitch": -0.0007420172914862633, "yaw": -0.7703661918640137, "rollspeed": -0.00022373360116034746, "pitchspeed": -0.0002443038683850318, "yawspeed": -0.0008127945475280285}}
{"timestamp": 1772979913.2286022, "type": "GLOBAL_POSITION_INT", "data": {"mavpackettype": "GLOBAL_POSITION_INT", "time_boot_ms": 442168042, "lat": -353632622, "lon": 1491652377, "alt": 584080, "relative_alt": 3, "vx": 0, "vy": -2, "vz": 0, "hdg": 31587}}
{"timestamp": 1772979913.2289646, "type": "VFR_HUD", "data": {"mavpackettype": "VFR_HUD", "airspeed": 0.023761432617902756, "groundspeed": 0.023760896176099777, "heading": 315, "throttle": 0, "alt": 584.0800170898438, "climb": -0.00015968440857250243}}
{"timestamp": 1772979913.2304518, "type": "SYS_STATUS", "data": {"mavpackettype": "SYS_STATUS", "onboard_control_sensors_present": 1399979055, "onboard_control_sensors_enabled": 1382128687, "onboard_control_sensors_health": 1467063343, "load": 0, "voltage_battery": 12600, "current_battery": 0, "battery_remaining": 51, "drop_rate_comm": 0, "errors_comm": 0, "errors_count1": 0, "errors_count2": 0, "errors_count3": 0, "errors_count4": 0}}
{"timestamp": 1772979913.2311268, "type": "POWER_STATUS", "data": {"mavpackettype": "POWER_STATUS", "Vcc": 5000, "Vservo": 0, "flags": 0}}
{"timestamp": 1772979913.2336762, "type": "MEMINFO", "data": {"mavpackettype": "MEMINFO", "brkval": 0, "freemem": 65535, "freemem32": 524288}}
{"timestamp": 1772979913.2338967, "type": "NAV_CONTROLLER_OUTPUT", "data": {"mavpackettype": "NAV_CONTROLLER_OUTPUT", "nav_roll": -0.00013222538109403104, "nav_pitch": -2.4937653506640345e-05, "nav_bearing": -44, "target_bearing": 0, "wp_dist": 0, "alt_error": 0.0, "aspd_error": 0.0, "xtrack_error": 0.0}}
{"timestamp": 1772979913.234152, "type": "MISSION_CURRENT", "data": {"mavpackettype": "MISSION_CURRENT", "seq": 0, "total": 1, "mission_state": 2, "mission_mode": 0}}
{"timestamp": 1772979913.2348454, "type": "SERVO_OUTPUT_RAW", "data": {"mavpackettype": "SERVO_OUTPUT_RAW", "time_usec": 4081378649, "port": 0, "servo1_raw": 1000, "servo2_raw": 1000, "servo3_raw": 1000, "servo4_raw": 1000, "servo5_raw": 0, "servo6_raw": 0, "servo7_raw": 0, "servo8_raw": 0, "servo9_raw": 0, "servo10_raw": 0, "servo11_raw": 0, "servo12_raw": 0, "servo13_raw": 0, "servo14_raw": 0, "servo15_raw": 0, "servo16_raw": 0}}
{"timestamp": 1772979913.2350163, "type": "RC_CHANNELS", "data": {"mavpackettype": "RC_CHANNELS", "time_boot_ms": 442168042, "chancount": 8, "chan1_raw": 1500, "chan2_raw": 1500, "chan3_raw": 1000, "chan4_raw": 1500, "chan5_raw": 1800, "chan6_raw": 1000, "chan7_raw": 1000, "chan8_raw": 1800, "chan9_raw": 0, "chan10_raw": 0, "chan11_raw": 0, "chan12_raw": 0, "chan13_raw": 0, "chan14_raw": 0, "chan15_raw": 0, "chan16_raw": 0, "chan17_raw": 0, "chan18_raw": 0, "rssi": 255}}
{"timestamp": 1772979913.2393994, "type": "RAW_IMU", "data": {"mavpackettype": "RAW_IMU", "time_usec": 442168042841, "xacc": 0, "yacc": 0, "zacc": -1001, "xgyro": 0, "ygyro": 0, "zgyro": 0, "xmag": 134, "ymag": 196, "zmag": -528, "id": 0, "temperature": 4500}}
{"timestamp": 1772979913.2396436, "type": "SCALED_IMU2", "data": {"mavpackettype": "SCALED_IMU2", "time_boot_ms": 442168042, "xacc": 0, "yacc": 0, "zacc": -1001, "xgyro": 0, "ygyro": 0, "zgyro": 0, "xmag": 134, "ymag": 196, "zmag": -528, "temperature": 4500}}
{"timestamp": 1772979913.2397969, "type": "SCALED_IMU3", "data": {"mavpackettype": "SCALED_IMU3", "time_boot_ms": 442168042, "xacc": 0, "yacc": 0, "zacc": 0, "xgyro": 0, "ygyro": 0, "zgyro": 0, "xmag": 134, "ymag": 196, "zmag": -528, "temperature": 0}}
{"timestamp": 1772979913.2399068, "type": "SCALED_PRESSURE", "data": {"mavpackettype": "SCALED_PRESSURE", "time_boot_ms": 442168042, "press_abs": 945.0282592773438, "press_diff": 0.0, "temperature": 3120, "temperature_press_diff": 0}}
{"timestamp": 1772979913.2400045, "type": "SCALED_PRESSURE2", "data": {"mavpackettype": "SCALED_PRESSURE2", "time_boot_ms": 442168042, "press_abs": 945.0184936523438, "press_diff": 0.0, "temperature": 3120, "temperature_press_diff": 0}}
{"timestamp": 1772979913.2401092, "type": "GPS_RAW_INT", "data": {"mavpackettype": "GPS_RAW_INT", "time_usec": 442167963000, "fix_type": 6, "lat": -353632622, "lon": 1491652379, "alt": 584090, "eph": 121, "epv": 200, "vel": 0, "cog": 22939, "satellites_visible": 10, "alt_ellipsoid": 584090, "h_acc": 300, "v_acc": 300, "vel_acc": 0, "hdg_acc": 0, "yaw": 0}}
{"timestamp": 1772979913.240348, "type": "SYSTEM_TIME", "data": {"mavpackettype": "SYSTEM_TIME", "time_unix_usec": 1772824737879778, "time_boot_ms": 442168042}}
{"timestamp": 1772979913.240494, "type": "SIMSTATE", "data": {"mavpackettype": "SIMSTATE", "roll": 0.0, "pitch": 0.0, "yaw": -0.747543454170227, "xacc": -1.2433897855735815e-21, "yacc": 4.2614244895457925e-21, "zacc": -9.806650161743164, "xgyro": 8.407790785948902e-43, "ygyro": 8.407790785948902e-43, "zgyro": 8.940695806813892e-06, "lat": -353632622, "lng": 1491652379}}
{"timestamp": 1772979913.2406106, "type": "WIND", "data": {"mavpackettype": "WIND", "direction": -180.0, "speed": 0.0, "speed_z": 0.0}}
{"timestamp": 1772979913.2412603, "type": "TERRAIN_REPORT", "data": {"mavpackettype": "TERRAIN_REPORT", "lat": -353632622, "lon": 1491652377, "spacing": 100, "terrain_height": 584.0801391601562, "current_height": -0.0001220703125, "pending": 0, "loaded": 616}}
{"timestamp": 1772979913.2414742, "type": "EKF_STATUS_REPORT", "data": {"mavpackettype": "EKF_STATUS_REPORT", "flags": 831, "velocity_variance": 0.008795108646154404, "pos_horiz_variance": 0.005160223226994276, "pos_vert_variance": 8.036238796194084e-06, "compass_variance": 0.013883039355278015, "terrain_alt_variance": 0.0, "airspeed_variance": 0.0}}
{"timestamp": 1772979913.2421048, "type": "LOCAL_POSITION_NED", "data": {"mavpackettype": "LOCAL_POSITION_NED", "time_boot_ms": 442168042, "x": -0.010883989743888378, "y": 0.026443829759955406, "z": 0.006235524080693722, "vx": 0.00042109336936846375, "vy": -0.023757165297865868, "vz": 0.00015968440857250243}}
{"timestamp": 1772979913.2423148, "type": "VIBRATION", "data": {"mavpackettype": "VIBRATION", "time_usec": 442168042841, "vibration_x": 0.0029439551290124655, "vibration_y": 0.003034649882465601, "vibration_z": 0.002580095548182726, "clipping_0": 0, "clipping_1": 0, "clipping_2": 0}}
{"timestamp": 1772979913.2425554, "type": "BATTERY_STATUS", "data": {"mavpackettype": "BATTERY_STATUS", "id": 0, "battery_function": 0, "type": 0, "temperature": 32767, "voltages": [12600, 65535, 65535, 65535, 65535, 65535, 65535, 65535, 65535, 65535], "current_battery": 0, "current_consumed": 1600, "energy_consumed": 726, "battery_remaining": 51, "time_remaining": 0, "charge_state": 1, "voltages_ext": [0, 0, 0, 0], "mode": 0, "fault_bitmask": 0}}
{"timestamp": 1772979913.242669, "type": "ESC_TELEMETRY_1_TO_4", "data": {"mavpackettype": "ESC_TELEMETRY_1_TO_4", "temperature": [32, 32, 32, 32], "voltage": [1679, 1679, 1679, 1679], "current": [80, 80, 80, 80], "totalcurrent": [1, 1, 1, 1], "rpm": [0, 0, 0, 0], "count": [48688, 48688, 48688, 48688]}}
{"timestamp": 1772979913.2765899, "type": "AHRS", "data": {"mavpackettype": "AHRS", "omegaIx": -0.0006544237839989364, "omegaIy": -0.0006735225906595588, "omegaIz": -0.0012021780712530017, "accel_weight": 0.0, "renorm_val": 0.0, "error_rp": 0.002385062165558338, "error_yaw": 0.0015161691699177027}}
{"timestamp": 1772979913.2768612, "type": "AHRS2", "data": {"mavpackettype": "AHRS2", "roll": -0.001587724662385881, "pitch": -0.0018047889461740851, "yaw": -0.7437173128128052, "altitude": 584.0800170898438, "lat": -353632622, "lng": 1491652379}}
{"timestamp": 1772979913.2770114, "type": "ATTITUDE", "data": {"mavpackettype": "ATTITUDE", "time_boot_ms": 442168292, "roll": 0.0025291191413998604, "pitch": -0.0007391260587610304, "yaw": -0.7703648209571838, "rollspeed": -0.00022508014808408916, "pitchspeed": -0.00032163591822609305, "yawspeed": -0.0007324643665924668}}
{"timestamp": 1772979913.2781203, "type": "GLOBAL_POSITION_INT", "data": {"mavpackettype": "GLOBAL_POSITION_INT", "time_boot_ms": 442168292, "lat": -353632622, "lon": 1491652377, "alt": 584080, "relative_alt": 3, "vx": 0, "vy": -2, "vz": 0, "hdg": 31587}}
{"timestamp": 1772979913.2783153, "type": "VFR_HUD", "data": {"mavpackettype": "VFR_HUD", "airspeed": 0.023823942989110947, "groundspeed": 0.02382386475801468, "heading": 315, "throttle": 0, "alt": 584.0800170898438, "climb": -6.038229912519455e-05}}
{"timestamp": 1772979913.2815728, "type": "SYS_STATUS", "data": {"mavpackettype": "SYS_STATUS", "onboard_control_sensors_present": 1399979055, "onboard_control_sensors_enabled": 1382128687, "onboard_control_sensors_health": 1467063343, "load": 0, "voltage_battery": 12600, "current_battery": 0, "battery_remaining": 51, "drop_rate_comm": 0, "errors_comm": 0, "errors_count1": 0, "errors_count2": 0, "errors_count3": 0, "errors_count4": 0}}
{"timestamp": 1772979913.2840886, "type": "POWER_STATUS", "data": {"mavpackettype": "POWER_STATUS", "Vcc": 5000, "Vservo": 0, "flags": 0}}
{"timestamp": 1772979913.284134, "type": "MEMINFO", "data": {"mavpackettype": "MEMINFO", "brkval": 0, "freemem": 65535, "freemem32": 524288}}
{"timestamp": 1772979913.284162, "type": "NAV_CONTROLLER_OUTPUT", "data": {"mavpackettype": "NAV_CONTROLLER_OUTPUT", "nav_roll": -0.00013222543930169195, "nav_pitch": -2.4937700800364837e-05, "nav_bearing": -44, "target_bearing": 0, "wp_dist": 0, "alt_error": 0.0, "aspd_error": 0.0, "xtrack_error": 0.0}}
{"timestamp": 1772979913.2841945, "type": "MISSION_CURRENT", "data": {"mavpackettype": "MISSION_CURRENT", "seq": 0, "total": 1, "mission_state": 2, "mission_mode": 0}}
{"timestamp": 1772979913.284245, "type": "SERVO_OUTPUT_RAW", "data": {"mavpackettype": "SERVO_OUTPUT_RAW", "time_usec": 4081628549, "port": 0, "servo1_raw": 1000, "servo2_raw": 1000, "servo3_raw": 1000, "servo4_raw": 1000, "servo5_raw": 0, "servo6_raw": 0, "servo7_raw": 0, "servo8_raw": 0, "servo9_raw": 0, "servo10_raw": 0, "servo11_raw": 0, "servo12_raw": 0, "servo13_raw": 0, "servo14_raw": 0, "servo15_raw": 0, "servo16_raw": 0}}
{"timestamp": 1772979913.2842805, "type": "RC_CHANNELS", "data": {"mavpackettype": "RC_CHANNELS", "time_boot_ms": 442168292, "chancount": 8, "chan1_raw": 1500, "chan2_raw": 1500, "chan3_raw": 1000, "chan4_raw": 1500, "chan5_raw": 1800, "chan6_raw": 1000, "chan7_raw": 1000, "chan8_raw": 1800, "chan9_raw": 0, "chan10_raw": 0, "chan11_raw": 0, "chan12_raw": 0, "chan13_raw": 0, "chan14_raw": 0, "chan15_raw": 0, "chan16_raw": 0, "chan17_raw": 0, "chan18_raw": 0, "rssi": 255}}
{"timestamp": 1772979913.2843206, "type": "RAW_IMU", "data": {"mavpackettype": "RAW_IMU", "time_usec": 442168292741, "xacc": 0, "yacc": 0, "zacc": -1001, "xgyro": 0, "ygyro": 0, "zgyro": 0, "xmag": 134, "ymag": 196, "zmag": -528, "id": 0, "temperature": 4500}}
{"timestamp": 1772979913.2843456, "type": "SCALED_IMU2", "data": {"mavpackettype": "SCALED_IMU2", "time_boot_ms": 442168292, "xacc": 0, "yacc": 0, "zacc": -1001, "xgyro": 0, "ygyro": 0, "zgyro": 0, "xmag": 134, "ymag": 196, "zmag": -528, "temperature": 4500}}
{"timestamp": 1772979913.2843938, "type": "SCALED_IMU3", "data": {"mavpackettype": "SCALED_IMU3", "time_boot_ms": 442168292, "xacc": 0, "yacc": 0, "zacc": 0, "xgyro": 0, "ygyro": 0, "zgyro": 0, "xmag": 134, "ymag": 196, "zmag": -528, "temperature": 0}}
{"timestamp": 1772979913.2844954, "type": "SCALED_PRESSURE", "data": {"mavpackettype": "SCALED_PRESSURE", "time_boot_ms": 442168292, "press_abs": 945.0282592773438, "press_diff": 0.0, "temperature": 3120, "temperature_press_diff": 0}}
{"timestamp": 1772979913.2847838, "type": "SCALED_PRESSURE2", "data": {"mavpackettype": "SCALED_PRESSURE2", "time_boot_ms": 442168292, "press_abs": 945.0375366210938, "press_diff": 0.0, "temperature": 3120, "temperature_press_diff": 0}}
{"timestamp": 1772979913.2849731, "type": "GPS_RAW_INT", "data": {"mavpackettype": "GPS_RAW_INT", "time_usec": 442168163000, "fix_type": 6, "lat": -353632622, "lon": 1491652379, "alt": 584090, "eph": 121, "epv": 200, "vel": 0, "cog": 22939, "satellites_visible": 10, "alt_ellipsoid": 584090, "h_acc": 300, "v_acc": 300, "vel_acc": 0, "hdg_acc": 0, "yaw": 0}}
{"timestamp": 1772979913.2854352, "type": "SYSTEM_TIME", "data": {"mavpackettype": "SYSTEM_TIME", "time_unix_usec": 1772824738129678, "time_boot_ms": 442168292}}
{"timestamp": 1772979913.2854939, "type": "SIMSTATE", "data": {"mavpackettype": "SIMSTATE", "roll": 0.0, "pitch": 0.0, "yaw": -0.747543454170227, "xacc": -1.2433897855735815e-21, "yacc": 4.2614244895457925e-21, "zacc": -9.806650161743164, "xgyro": 8.407790785948902e-43, "ygyro": 8.407790785948902e-43, "zgyro": 8.940695806813892e-06, "lat": -353632622, "lng": 1491652379}}
{"timestamp": 1772979913.2856297, "type": "WIND", "data": {"mavpackettype": "WIND", "direction": -180.0, "speed": 0.0, "speed_z": 0.0}}
{"timestamp": 1772979913.286507, "type": "TERRAIN_REPORT", "data": {"mavpackettype": "TERRAIN_REPORT", "lat": -353632622, "lon": 1491652377, "spacing": 100, "terrain_height": 584.0801391601562, "current_height": -0.0001220703125, "pending": 0, "loaded": 616}}
{"timestamp": 1772979913.2865455, "type": "EKF_STATUS_REPORT", "data": {"mavpackettype": "EKF_STATUS_REPORT", "flags": 831, "velocity_variance": 0.008812317624688148, "pos_horiz_variance": 0.00516552897170186, "pos_vert_variance": 6.387199846358271e-06, "compass_variance": 0.01382096204906702, "terrain_alt_variance": 0.0, "airspeed_variance": 0.0}}
{"timestamp": 1772979913.2865741, "type": "LOCAL_POSITION_NED", "data": {"mavpackettype": "LOCAL_POSITION_NED", "time_boot_ms": 442168292, "x": -0.010874522849917412, "y": 0.02645130455493927, "z": 0.006248619873076677, "vx": 0.00034984564990736544, "vy": -0.02382129617035389, "vz": 6.038229912519455e-05}}
{"timestamp": 1772979913.2866027, "type": "VIBRATION", "data": {"mavpackettype": "VIBRATION", "time_usec": 442168292741, "vibration_x": 0.0026792665012180805, "vibration_y": 0.0030556791462004185, "vibration_z": 0.0025952085852622986, "clipping_0": 0, "clipping_1": 0, "clipping_2": 0}}
{"timestamp": 1772979913.2866569, "type": "BATTERY_STATUS", "data": {"mavpackettype": "BATTERY_STATUS", "id": 0, "battery_function": 0, "type": 0, "temperature": 32767, "voltages": [12600, 65535, 65535, 65535, 65535, 65535, 65535, 65535, 65535, 65535], "current_battery": 0, "current_consumed": 1600, "energy_consumed": 726, "battery_remaining": 51, "time_remaining": 0, "charge_state": 1, "voltages_ext": [0, 0, 0, 0], "mode": 0, "fault_bitmask": 0}}
{"timestamp": 1772979913.2878833, "type": "ESC_TELEMETRY_1_TO_4", "data": {"mavpackettype": "ESC_TELEMETRY_1_TO_4", "temperature": [32, 32, 32, 32], "voltage": [1679, 1679, 1679, 1679], "current": [80, 80, 80, 80], "totalcurrent": [1, 1, 1, 1], "rpm": [0, 0, 0, 0], "count": [48788, 48788, 48788, 48788]}}
{"timestamp": 1772979913.3166366, "type": "FLIGHT_INFORMATION", "data": {"mavpackettype": "FLIGHT_INFORMATION", "time_boot_ms": 442168480, "arming_time_utc": 0, "takeoff_time_utc": 0, "flight_uuid": 0}}
{"timestamp": 1772979913.3318965, "type": "AHRS", "data": {"mavpackettype": "AHRS", "omegaIx": -0.0006520553724840283, "omegaIy": -0.0006711487076245248, "omegaIz": -0.0012002510484308004, "accel_weight": 0.0, "renorm_val": 0.0, "error_rp": 0.0023836155887693167, "error_yaw": 0.0015003200387582183}}
{"timestamp": 1772979913.3319755, "type": "AHRS2", "data": {"mavpackettype": "AHRS2", "roll": -0.0015817660605534911, "pitch": -0.0017982039134949446, "yaw": -0.7437177300453186, "altitude": 584.0800170898438, "lat": -353632622, "lng": 1491652379}}
{"timestamp": 1772979913.3320158, "type": "ATTITUDE", "data": {"mavpackettype": "ATTITUDE", "time_boot_ms": 442168542, "roll": 0.002526866737753153, "pitch": -0.00074140535434708, "yaw": -0.7703633904457092, "rollspeed": -0.00020585893071256578, "pitchspeed": -0.0002972106449306011, "yawspeed": -0.0008361611398868263}}
{"timestamp": 1772979913.3326254, "type": "GLOBAL_POSITION_INT", "data": {"mavpackettype": "GLOBAL_POSITION_INT", "time_boot_ms": 442168542, "lat": -353632622, "lon": 1491652377, "alt": 584080, "relative_alt": 3, "vx": 0, "vy": -2, "vz": 0, "hdg": 31587}}
{"timestamp": 1772979913.332676, "type": "VFR_HUD", "data": {"mavpackettype": "VFR_HUD", "airspeed": 0.023864278569817543, "groundspeed": 0.023863952606916428, "heading": 315, "throttle": 0, "alt": 584.0800170898438, "climb": -0.00012455930118449032}}
{"timestamp": 1772979913.3327131, "type": "SYS_STATUS", "data": {"mavpackettype": "SYS_STATUS", "onboard_control_sensors_present": 1399979055, "onboard_control_sensors_enabled": 1382128687, "onboard_control_sensors_health": 1467063343, "load": 0, "voltage_battery": 12600, "current_battery": 0, "battery_remaining": 51, "drop_rate_comm": 0, "errors_comm": 0, "errors_count1": 0, "errors_count2": 0, "errors_count3": 0, "errors_count4": 0}}
{"timestamp": 1772979913.3327463, "type": "POWER_STATUS", "data": {"mavpackettype": "POWER_STATUS", "Vcc": 5000, "Vservo": 0, "flags": 0}}
{"timestamp": 1772979913.33277, "type": "MEMINFO", "data": {"mavpackettype": "MEMINFO", "brkval": 0, "freemem": 65535, "freemem32": 524288}}
{"timestamp": 1772979913.3327947, "type": "NAV_CONTROLLER_OUTPUT", "data": {"mavpackettype": "NAV_CONTROLLER_OUTPUT", "nav_roll": -0.0001322254101978615, "nav_pitch": -2.4937704438343644e-05, "nav_bearing": -44, "target_bearing": 0, "wp_dist": 0, "alt_error": 0.0, "aspd_error": 0.0, "xtrack_error": 0.0}}
{"timestamp": 1772979913.3328226, "type": "MISSION_CURRENT", "data": {"mavpackettype": "MISSION_CURRENT", "seq": 0, "total": 1, "mission_state": 2, "mission_mode": 0}}
{"timestamp": 1772979913.3328724, "type": "SERVO_OUTPUT_RAW", "data": {"mavpackettype": "SERVO_OUTPUT_RAW", "time_usec": 4081878449, "port": 0, "servo1_raw": 1000, "servo2_raw": 1000, "servo3_raw": 1000, "servo4_raw": 1000, "servo5_raw": 0, "servo6_raw": 0, "servo7_raw": 0, "servo8_raw": 0, "servo9_raw": 0, "servo10_raw": 0, "servo11_raw": 0, "servo12_raw": 0, "servo13_raw": 0, "servo14_raw": 0, "servo15_raw": 0, "servo16_raw": 0}}
{"timestamp": 1772979913.332907, "type": "RC_CHANNELS", "data": {"mavpackettype": "RC_CHANNELS", "time_boot_ms": 442168542, "chancount": 8, "chan1_raw": 1500, "chan2_raw": 1500, "chan3_raw": 1000, "chan4_raw": 1500, "chan5_raw": 1800, "chan6_raw": 1000, "chan7_raw": 1000, "chan8_raw": 1800, "chan9_raw": 0, "chan10_raw": 0, "chan11_raw": 0, "chan12_raw": 0, "chan13_raw": 0, "chan14_raw": 0, "chan15_raw": 0, "chan16_raw": 0, "chan17_raw": 0, "chan18_raw": 0, "rssi": 255}}
{"timestamp": 1772979913.3329494, "type": "RAW_IMU", "data": {"mavpackettype": "RAW_IMU", "time_usec": 442168542641, "xacc": 0, "yacc": 0, "zacc": -1001, "xgyro": 0, "ygyro": 0, "zgyro": 0, "xmag": 134, "ymag": 196, "zmag": -528, "id": 0, "temperature": 4500}}
{"timestamp": 1772979913.3329768, "type": "SCALED_IMU2", "data": {"mavpackettype": "SCALED_IMU2", "time_boot_ms": 442168542, "xacc": 0, "yacc": 0, "zacc": -1001, "xgyro": 0, "ygyro": 0, "zgyro": 0, "xmag": 134, "ymag": 196, "zmag": -528, "temperature": 4500}}
{"timestamp": 1772979913.3330016, "type": "SCALED_IMU3", "data": {"mavpackettype": "SCALED_IMU3", "time_boot_ms": 442168542, "xacc": 0, "yacc": 0, "zacc": 0, "xgyro": 0, "ygyro": 0, "zgyro": 0, "xmag": 134, "ymag": 196, "zmag": -528, "temperature": 0}}
{"timestamp": 1772979913.3331008, "type": "SCALED_PRESSURE", "data": {"mavpackettype": "SCALED_PRESSURE", "time_boot_ms": 442168542, "press_abs": 945.0282592773438, "press_diff": 0.0, "temperature": 3120, "temperature_press_diff": 0}}
{"timestamp": 1772979913.3331945, "type": "SCALED_PRESSURE2", "data": {"mavpackettype": "SCALED_PRESSURE2", "time_boot_ms": 442168542, "press_abs": 945.0274658203125, "press_diff": 0.0, "temperature": 3120, "temperature_press_diff": 0}}
{"timestamp": 1772979913.3332846, "type": "GPS_RAW_INT", "data": {"mavpackettype": "GPS_RAW_INT", "time_usec": 442168363000, "fix_type": 6, "lat": -353632622, "lon": 1491652379, "alt": 584090, "eph": 121, "epv": 200, "vel": 0, "cog": 22939, "satellites_visible": 10, "alt_ellipsoid": 584090, "h_acc": 300, "v_acc": 300, "vel_acc": 0, "hdg_acc": 0, "yaw": 0}}
{"timestamp": 1772979913.3334985, "type": "SYSTEM_TIME", "data": {"mavpackettype": "SYSTEM_TIME", "time_unix_usec": 1772824738379578, "time_boot_ms": 442168542}}
{"timestamp": 1772979913.334516, "type": "SIMSTATE", "data": {"mavpackettype": "SIMSTATE", "roll": 0.0, "pitch": 0.0, "yaw": -0.747543454170227, "xacc": -1.2433897855735815e-21, "yacc": 4.2614244895457925e-21, "zacc": -9.806650161743164, "xgyro": 8.407790785948902e-43, "ygyro": 8.407790785948902e-43, "zgyro": 8.940695806813892e-06, "lat": -353632622, "lng": 1491652379}}
{"timestamp": 1772979913.3350718, "type": "WIND", "data": {"mavpackettype": "WIND", "direction": -180.0, "speed": 0.0, "speed_z": 0.0}}
{"timestamp": 1772979913.33539, "type": "TERRAIN_REPORT", "data": {"mavpackettype": "TERRAIN_REPORT", "lat": -353632622, "lon": 1491652377, "spacing": 100, "terrain_height": 584.0801391601562, "current_height": -0.0001220703125, "pending": 0, "loaded": 616}}
{"timestamp": 1772979913.3355749, "type": "EKF_STATUS_REPORT", "data": {"mavpackettype": "EKF_STATUS_REPORT", "flags": 831, "velocity_variance": 0.00882806722074747, "pos_horiz_variance": 0.005171402357518673, "pos_vert_variance": 5.13971508553368e-06, "compass_variance": 0.013817979022860527, "terrain_alt_variance": 0.0, "airspeed_variance": 0.0}}
{"timestamp": 1772979913.336705, "type": "LOCAL_POSITION_NED", "data": {"mavpackettype": "LOCAL_POSITION_NED", "time_boot_ms": 442168542, "x": -0.010867130942642689, "y": 0.0262504480779171, "z": 0.006259480956941843, "vx": 0.0004043041553813964, "vy": -0.023860527202486992, "vz": 0.00012455930118449032}}
{"timestamp": 1772979913.337659, "type": "VIBRATION", "data": {"mavpackettype": "VIBRATION", "time_usec": 442168542641, "vibration_x": 0.002918096724897623, "vibration_y": 0.002550054807215929, "vibration_z": 0.002667037770152092, "clipping_0": 0, "clipping_1": 0, "clipping_2": 0}}
{"timestamp": 1772979913.3381734, "type": "BATTERY_STATUS", "data": {"mavpackettype": "BATTERY_STATUS", "id": 0, "battery_function": 0, "type": 0, "temperature": 32767, "voltages": [12600, 65535, 65535, 65535, 65535, 65535, 65535, 65535, 65535, 65535], "current_battery": 0, "current_consumed": 1600, "energy_consumed": 726, "battery_remaining": 51, "time_remaining": 0, "charge_state": 1, "voltages_ext": [0, 0, 0, 0], "mode": 0, "fault_bitmask": 0}}
{"timestamp": 1772979913.3385127, "type": "ESC_TELEMETRY_1_TO_4", "data": {"mavpackettype": "ESC_TELEMETRY_1_TO_4", "temperature": [32, 32, 32, 32], "voltage": [1679, 1679, 1679, 1679], "current": [80, 80, 80, 80], "totalcurrent": [1, 1, 1, 1], "rpm": [0, 0, 0, 0], "count": [48888, 48888, 48888, 48888]}}
{"timestamp": 1772979913.377492, "type": "AHRS", "data": {"mavpackettype": "AHRS", "omegaIx": -0.0006451929220929742, "omegaIy": -0.0006642016232945025, "omegaIz": -0.0011938904644921422, "accel_weight": 0.0, "renorm_val": 0.0, "error_rp": 0.002371409209445119, "error_yaw": 0.0014818287454545498}}
{"timestamp": 1772979913.3797092, "type": "AHRS2", "data": {"mavpackettype": "AHRS2", "roll": -0.0015845448942855, "pitch": -0.0018007049802690744, "yaw": -0.7437095642089844, "altitude": 584.0800170898438, "lat": -353632622, "lng": 1491652379}}
{"timestamp": 1772979913.3797648, "type": "ATTITUDE", "data": {"mavpackettype": "ATTITUDE", "time_boot_ms": 442168792, "roll": 0.0025134815368801355, "pitch": -0.0007530844886787236, "yaw": -0.770365834236145, "rollspeed": -0.00030212433193810284, "pitchspeed": -0.00022826454369351268, "yawspeed": -0.000754448352381587}}
{"timestamp": 1772979913.3798, "type": "GLOBAL_POSITION_INT", "data": {"mavpackettype": "GLOBAL_POSITION_INT", "time_boot_ms": 442168792, "lat": -353632622, "lon": 1491652377, "alt": 584080, "relative_alt": 3, "vx": 0, "vy": -2, "vz": 0, "hdg": 31587}}
{"timestamp": 1772979913.3802636, "type": "VFR_HUD", "data": {"mavpackettype": "VFR_HUD", "airspeed": 0.023865889757871628, "groundspeed": 0.023865260183811188, "heading": 315, "throttle": 0, "alt": 584.0800170898438, "climb": -0.00017358912737108767}}
{"timestamp": 1772979913.380941, "type": "SYS_STATUS", "data": {"mavpackettype": "SYS_STATUS", "onboard_control_sensors_present": 1399979055, "onboard_control_sensors_enabled": 1382128687, "onboard_control_sensors_health": 1467063343, "load": 0, "voltage_battery": 12600, "current_battery": 0, "battery_remaining": 51, "drop_rate_comm": 0, "errors_comm": 0, "errors_count1": 0, "errors_count2": 0, "errors_count3": 0, "errors_count4": 0}}
{"timestamp": 1772979913.3867018, "type": "POWER_STATUS", "data": {"mavpackettype": "POWER_STATUS", "Vcc": 5000, "Vservo": 0, "flags": 0}}
{"timestamp": 1772979913.3870182, "type": "MEMINFO", "data": {"mavpackettype": "MEMINFO", "brkval": 0, "freemem": 65535, "freemem32": 524288}}
{"timestamp": 1772979913.3873296, "type": "NAV_CONTROLLER_OUTPUT", "data": {"mavpackettype": "NAV_CONTROLLER_OUTPUT", "nav_roll": -0.00013222538109403104, "nav_pitch": -2.493771717126947e-05, "nav_bearing": -44, "target_bearing": 0, "wp_dist": 0, "alt_error": 0.0, "aspd_error": 0.0, "xtrack_error": 0.0}}
{"timestamp": 1772979913.387677, "type": "MISSION_CURRENT", "data": {"mavpackettype": "MISSION_CURRENT", "seq": 0, "total": 1, "mission_state": 2, "mission_mode": 0}}
{"timestamp": 1772979913.3879797, "type": "SERVO_OUTPUT_RAW", "data": {"mavpackettype": "SERVO_OUTPUT_RAW", "time_usec": 4082128349, "port": 0, "servo1_raw": 1000, "servo2_raw": 1000, "servo3_raw": 1000, "servo4_raw": 1000, "servo5_raw": 0, "servo6_raw": 0, "servo7_raw": 0, "servo8_raw": 0, "servo9_raw": 0, "servo10_raw": 0, "servo11_raw": 0, "servo12_raw": 0, "servo13_raw": 0, "servo14_raw": 0, "servo15_raw": 0, "servo16_raw": 0}}
{"timestamp": 1772979913.3880875, "type": "RC_CHANNELS", "data": {"mavpackettype": "RC_CHANNELS", "time_boot_ms": 442168792, "chancount": 8, "chan1_raw": 1500, "chan2_raw": 1500, "chan3_raw": 1000, "chan4_raw": 1500, "chan5_raw": 1800, "chan6_raw": 1000, "chan7_raw": 1000, "chan8_raw": 1800, "chan9_raw": 0, "chan10_raw": 0, "chan11_raw": 0, "chan12_raw": 0, "chan13_raw": 0, "chan14_raw": 0, "chan15_raw": 0, "chan16_raw": 0, "chan17_raw": 0, "chan18_raw": 0, "rssi": 255}}
{"timestamp": 1772979913.3882394, "type": "RAW_IMU", "data": {"mavpackettype": "RAW_IMU", "time_usec": 442168792541, "xacc": 0, "yacc": 0, "zacc": -1001, "xgyro": 0, "ygyro": 0, "zgyro": 0, "xmag": 134, "ymag": 196, "zmag": -528, "id": 0, "temperature": 4500}}
{"timestamp": 1772979913.3883557, "type": "SCALED_IMU2", "data": {"mavpackettype": "SCALED_IMU2", "time_boot_ms": 442168792, "xacc": 0, "yacc": 0, "zacc": -1001, "xgyro": 0, "ygyro": 0, "zgyro": 0, "xmag": 134, "ymag": 196, "zmag": -528, "temperature": 4500}}
{"timestamp": 1772979913.3884678, "type": "SCALED_IMU3", "data": {"mavpackettype": "SCALED_IMU3", "time_boot_ms": 442168792, "xacc": 0, "yacc": 0, "zacc": 0, "xgyro": 0, "ygyro": 0, "zgyro": 0, "xmag": 134, "ymag": 196, "zmag": -528, "temperature": 0}}
{"timestamp": 1772979913.38859, "type": "SCALED_PRESSURE", "data": {"mavpackettype": "SCALED_PRESSURE", "time_boot_ms": 442168792, "press_abs": 945.0282592773438, "press_diff": 0.0, "temperature": 3120, "temperature_press_diff": 0}}
{"timestamp": 1772979913.3888063, "type": "SCALED_PRESSURE2", "data": {"mavpackettype": "SCALED_PRESSURE2", "time_boot_ms": 442168792, "press_abs": 945.017578125, "press_diff": 0.0, "temperature": 3120, "temperature_press_diff": 0}}
