{"timestamp": 1772979914.8303964, "type": "FLIGHT_INFORMATION", "data": {"mavpackettype": "FLIGHT_INFORMATION", "time_boot_ms": 442175980, "arming_time_utc": 0, "takeoff_time_utc": 0, "flight_uuid": 0}}
{"timestamp": 1772979914.830458, "type": "AHRS", "data": {"mavpackettype": "AHRS", "omegaIx": -0.0005429295706562698, "omegaIy": -0.0005599051946774125, "omegaIz": -0.0010906654642894864, "accel_weight": 0.0, "renorm_val": 0.0, "error_rp": 0.002329482464119792, "error_yaw": 0.0013960916548967361}}
{"timestamp": 1772979914.8304927, "type": "AHRS2", "data": {"mavpackettype": "AHRS2", "roll": -0.0015649815322831273, "pitch": -0.0017771066632121801, "yaw": -0.7437265515327454, "altitude": 584.0800170898438, "lat": -353632622, "lng": 1491652379}}
{"timestamp": 1772979914.8305218, "type": "ATTITUDE", "data": {"mavpackettype": "ATTITUDE", "time_boot_ms": 442176042, "roll": 0.002511129016056657, "pitch": -0.0007189190946519375, "yaw": -0.7703149914741516, "rollspeed": -0.000273661658866331, "pitchspeed": -0.00024166773073375225, "yawspeed": -0.0007745741168037057}}
{"timestamp": 1772979914.8305528, "type": "GLOBAL_POSITION_INT", "data": {"mavpackettype": "GLOBAL_POSITION_INT", "time_boot_ms": 442176042, "lat": -353632622, "lon": 1491652377, "alt": 584080, "relative_alt": 3, "vx": 0, "vy": -2, "vz": 0, "hdg": 31587}}
{"timestamp": 1772979914.8305807, "type": "VFR_HUD", "data": {"mavpackettype": "VFR_HUD", "airspeed": 0.023542243987321854, "groundspeed": 0.023541830480098724, "heading": 315, "throttle": 0, "alt": 584.0800170898438, "climb": -0.00013947726984042674}}
{"timestamp": 1772979914.8306534, "type": "SYS_STATUS", "data": {"mavpackettype": "SYS_STATUS", "onboard_control_sensors_present": 1399979055, "onboard_control_sensors_enabled": 1382128687, "onboard_control_sensors_health": 1467063343, "load": 0, "voltage_battery": 12600, "current_battery": 0, "battery_remaining": 51, "drop_rate_comm": 0, "errors_comm": 0, "errors_count1": 0, "errors_count2": 0, "errors_count3": 0, "errors_count4": 0}}
{"timestamp": 1772979914.8306959, "type": "POWER_STATUS", "data": {"mavpackettype": "POWER_STATUS", "Vcc": 5000, "Vservo": 0, "flags": 0}}
{"timestamp": 1772979914.8307233, "type": "MEMINFO", "data": {"mavpackettype": "MEMINFO", "brkval": 0, "freemem": 65535, "freemem32": 524288}}
{"timestamp": 1772979914.8307562, "type": "NAV_CONTROLLER_OUTPUT", "data": {"mavpackettype": "NAV_CONTROLLER_OUTPUT", "nav_roll": -0.00013222498819231987, "nav_pitch": -2.493759529897943e-05, "nav_bearing": -44, "target_bearing": 0, "wp_dist": 0, "alt_error": 0.0, "aspd_error": 0.0, "xtrack_error": 0.0}}
{"timestamp": 1772979914.8307815, "type": "MISSION_CURRENT", "data": {"mavpackettype": "MISSION_CURRENT", "seq": 0, "total": 1, "mission_state": 2, "mission_mode": 0}}
{"timestamp": 1772979914.830827, "type": "SERVO_OUTPUT_RAW", "data": {"mavpackettype": "SERVO_OUTPUT_RAW", "time_usec": 4089378781, "port": 0, "servo1_raw": 1000, "servo2_raw": 1000, "servo3_raw": 1000, "servo4_raw": 1000, "servo5_raw": 0, "servo6_raw": 0, "servo7_raw": 0, "servo8_raw": 0, "servo9_raw": 0, "servo10_raw": 0, "servo11_raw": 0, "servo12_raw": 0, "servo13_raw": 0, "servo14_raw": 0, "servo15_raw": 0, "servo16_raw": 0}}
{"timestamp": 1772979914.8308585, "type": "RC_CHANNELS", "data": {"mavpackettype": "RC_CHANNELS", "time_boot_ms": 442176042, "chancount": 8, "chan1_raw": 1500, "chan2_raw": 1500, "chan3_raw": 1000, "chan4_raw": 1500, "chan5_raw": 1800, "chan6_raw": 1000, "chan7_raw": 1000, "chan8_raw": 1800, "chan9_raw": 0, "chan10_raw": 0, "chan11_raw": 0, "chan12_raw": 0, "chan13_raw": 0, "chan14_raw": 0, "chan15_raw": 0, "chan16_raw": 0, "chan17_raw": 0, "chan18_raw": 0, "rssi": 255}}
{"timestamp": 1772979914.830913, "type": "RAW_IMU", "data": {"mavpackettype": "RAW_IMU", "time_usec": 442176042973, "xacc": 0, "yacc": 0, "zacc": -1001, "xgyro": 0, "ygyro": 0, "zgyro": 0, "xmag": 134, "ymag": 196, "zmag": -528, "id": 0, "temperature": 4500}}
{"timestamp": 1772979914.8309464, "type": "SCALED_IMU2", "data": {"mavpackettype": "SCALED_IMU2", "time_boot_ms": 442176042, "xacc": 0, "yacc": 0, "zacc": -1001, "xgyro": 0, "ygyro": 0, "zgyro": 0, "xmag": 134, "ymag": 196, "zmag": -528, "temperature": 4500}}
{"timestamp": 1772979914.8309755, "type": "SCALED_IMU3", "data": {"mavpackettype": "SCALED_IMU3", "time_boot_ms": 442176042, "xacc": 0, "yacc": 0, "zacc": 0, "xgyro": 0, "ygyro": 0, "zgyro": 0, "xmag": 134, "ymag": 196, "zmag": -528, "temperature": 0}}
{"timestamp": 1772979914.8310027, "type": "SCALED_PRESSURE", "data": {"mavpackettype": "SCALED_PRESSURE", "time_boot_ms": 442176042, "press_abs": 945.0282592773438, "press_diff": 0.0, "temperature": 3120, "temperature_press_diff": 0}}
{"timestamp": 1772979914.8310258, "type": "SCALED_PRESSURE2", "data": {"mavpackettype": "SCALED_PRESSURE2", "time_boot_ms": 442176042, "press_abs": 945.0446166992188, "press_diff": 0.0, "temperature": 3120, "temperature_press_diff": 0}}
{"timestamp": 1772979914.8310506, "type": "GPS_RAW_INT", "data": {"mavpackettype": "GPS_RAW_INT", "time_usec": 442175963000, "fix_type": 6, "lat": -353632622, "lon": 1491652379, "alt": 584090, "eph": 121, "epv": 200, "vel": 0, "cog": 22939, "satellites_visible": 10, "alt_ellipsoid": 584090, "h_acc": 300, "v_acc": 300, "vel_acc": 0, "hdg_acc": 0, "yaw": 0}}
{"timestamp": 1772979914.8310804, "type": "SYSTEM_TIME", "data": {"mavpackettype": "SYSTEM_TIME", "time_unix_usec": 1772824745879910, "time_boot_ms": 442176042}}
{"timestamp": 1772979914.8311179, "type": "SIMSTATE", "data": {"mavpackettype": "SIMSTATE", "roll": 0.0, "pitch": 0.0, "yaw": -0.747543454170227, "xacc": -1.2433897855735815e-21, "yacc": 4.2614244895457925e-21, "zacc": -9.806650161743164, "xgyro": 8.407790785948902e-43, "ygyro": 8.407790785948902e-43, "zgyro": 8.940695806813892e-06, "lat": -353632622, "lng": 1491652379}}
{"timestamp": 1772979914.831149, "type": "WIND", "data": {"mavpackettype": "WIND", "direction": -180.0, "speed": 0.0, "speed_z": 0.0}}
{"timestamp": 1772979914.8311698, "type": "TERRAIN_REPORT", "data": {"mavpackettype": "TERRAIN_REPORT", "lat": -353632622, "lon": 1491652377, "spacing": 100, "terrain_height": 584.0801391601562, "current_height": -0.0001220703125, "pending": 0, "loaded": 616}}
{"timestamp": 1772979914.831193, "type": "EKF_STATUS_REPORT", "data": {"mavpackettype": "EKF_STATUS_REPORT", "flags": 831, "velocity_variance": 0.008726563304662704, "pos_horiz_variance": 0.005215189419686794, "pos_vert_variance": 2.561145811341703e-05, "compass_variance": 0.013825112022459507, "terrain_alt_variance": 0.0, "airspeed_variance": 0.0}}
{"timestamp": 1772979914.8312206, "type": "LOCAL_POSITION_NED", "data": {"mavpackettype": "LOCAL_POSITION_NED", "time_boot_ms": 442176042, "x": -0.010763153433799744, "y": 0.02627227082848549, "z": 0.006535892840474844, "vx": 0.00030773182515986264, "vy": -0.023539818823337555, "vz": 0.00013947726984042674}}
{"timestamp": 1772979914.8312442, "type": "VIBRATION", "data": {"mavpackettype": "VIBRATION", "time_usec": 442176042973, "vibration_x": 0.002766321413218975, "vibration_y": 0.002887783106416464, "vibration_z": 0.0028292948845773935, "clipping_0": 0, "clipping_1": 0, "clipping_2": 0}}
{"timestamp": 1772979914.8312845, "type": "BATTERY_STATUS", "data": {"mavpackettype": "BATTERY_STATUS", "id": 0, "battery_function": 0, "type": 0, "temperature": 32767, "voltages": [12600, 65535, 65535, 65535, 65535, 65535, 65535, 65535, 65535, 65535], "current_battery": 0, "current_consumed": 1600, "energy_consumed": 726, "battery_remaining": 51, "time_remaining": 0, "charge_state": 1, "voltages_ext": [0, 0, 0, 0], "mode": 0, "fault_bitmask": 0}}
{"timestamp": 1772979914.8313184, "type": "ESC_TELEMETRY_1_TO_4", "data": {"mavpackettype": "ESC_TELEMETRY_1_TO_4", "temperature": [32, 32, 32, 32], "voltage": [1679, 1679, 1679, 1679], "current": [80, 80, 80, 80], "totalcurrent": [1, 1, 1, 1], "rpm": [0, 0, 0, 0], "count": [51888, 51888, 51888, 51888]}}
{"timestamp": 1772979914.8765016, "type": "AHRS", "data": {"mavpackettype": "AHRS", "omegaIx": -0.000539623957592994, "omegaIy": -0.0005565464380197227, "omegaIz": -0.0010854536667466164, "accel_weight": 0.0, "renorm_val": 0.0, "error_rp": 0.0023396576289087534, "error_yaw": 0.0014044013805687428}}
{"timestamp": 1772979914.8771086, "type": "AHRS2", "data": {"mavpackettype": "AHRS2", "roll": -0.0015640257624909282, "pitch": -0.0017790970159694552, "yaw": -0.7437288165092468, "altitude": 584.0800170898438, "lat": -353632622, "lng": 1491652379}}
{"timestamp": 1772979914.877193, "type": "ATTITUDE", "data": {"mavpackettype": "ATTITUDE", "time_boot_ms": 442176292, "roll": 0.0025148363783955574, "pitch": -0.0007160541135817766, "yaw": -0.7703169584274292, "rollspeed": -0.0002079187543131411, "pitchspeed": -0.00024028465850278735, "yawspeed": -0.0007758602150715888}}
{"timestamp": 1772979914.8776102, "type": "GLOBAL_POSITION_INT", "data": {"mavpackettype": "GLOBAL_POSITION_INT", "time_boot_ms": 442176292, "lat": -353632622, "lon": 1491652377, "alt": 584080, "relative_alt": 3, "vx": 0, "vy": -2, "vz": 0, "hdg": 31587}}
{"timestamp": 1772979914.8779342, "type": "VFR_HUD", "data": {"mavpackettype": "VFR_HUD", "airspeed": 0.023607682436704636, "groundspeed": 0.023607615381479263, "heading": 315, "throttle": 0, "alt": 584.0800170898438, "climb": -5.6241849961224943e-05}}
{"timestamp": 1772979914.8789847, "type": "SYS_STATUS", "data": {"mavpackettype": "SYS_STATUS", "onboard_control_sensors_present": 1399979055, "onboard_control_sensors_enabled": 1382128687, "onboard_control_sensors_health": 1467063343, "load": 0, "voltage_battery": 12600, "current_battery": 0, "battery_remaining": 51, "drop_rate_comm": 0, "errors_comm": 0, "errors_count1": 0, "errors_count2": 0, "errors_count3": 0, "errors_count4": 0}}
{"timestamp": 1772979914.8801227, "type": "POWER_STATUS", "data": {"mavpackettype": "POWER_STATUS", "Vcc": 5000, "Vservo": 0, "flags": 0}}
{"timestamp": 1772979914.8803663, "type": "MEMINFO", "data": {"mavpackettype": "MEMINFO", "brkval": 0, "freemem": 65535, "freemem32": 524288}}
{"timestamp": 1772979914.880428, "type": "NAV_CONTROLLER_OUTPUT", "data": {"mavpackettype": "NAV_CONTROLLER_OUTPUT", "nav_roll": -0.00013222501729615033, "nav_pitch": -2.4937586204032414e-05, "nav_bearing": -44, "target_bearing": 0, "wp_dist": 0, "alt_error": 0.0, "aspd_error": 0.0, "xtrack_error": 0.0}}
{"timestamp": 1772979914.880557, "type": "MISSION_CURRENT", "data": {"mavpackettype": "MISSION_CURRENT", "seq": 0, "total": 1, "mission_state": 2, "mission_mode": 0}}
{"timestamp": 1772979914.880927, "type": "SERVO_OUTPUT_RAW", "data": {"mavpackettype": "SERVO_OUTPUT_RAW", "time_usec": 4089628681, "port": 0, "servo1_raw": 1000, "servo2_raw": 1000, "servo3_raw": 1000, "servo4_raw": 1000, "servo5_raw": 0, "servo6_raw": 0, "servo7_raw": 0, "servo8_raw": 0, "servo9_raw": 0, "servo10_raw": 0, "servo11_raw": 0, "servo12_raw": 0, "servo13_raw": 0, "servo14_raw": 0, "servo15_raw": 0, "servo16_raw": 0}}
{"timestamp": 1772979914.8811274, "type": "RC_CHANNELS", "data": {"mavpackettype": "RC_CHANNELS", "time_boot_ms": 442176292, "chancount": 8, "chan1_raw": 1500, "chan2_raw": 1500, "chan3_raw": 1000, "chan4_raw": 1500, "chan5_raw": 1800, "chan6_raw": 1000, "chan7_raw": 1000, "chan8_raw": 1800, "chan9_raw": 0, "chan10_raw": 0, "chan11_raw": 0, "chan12_raw": 0, "chan13_raw": 0, "chan14_raw": 0, "chan15_raw": 0, "chan16_raw": 0, "chan17_raw": 0, "chan18_raw": 0, "rssi": 255}}
{"timestamp": 1772979914.8813915, "type": "RAW_IMU", "data": {"mavpackettype": "RAW_IMU", "time_usec": 442176292873, "xacc": 0, "yacc": 0, "zacc": -1001, "xgyro": 0, "ygyro": 0, "zgyro": 0, "xmag": 134, "ymag": 196, "zmag": -528, "id": 0, "temperature": 4500}}
{"timestamp": 1772979914.881587, "type": "SCALED_IMU2", "data": {"mavpackettype": "SCALED_IMU2", "time_boot_ms": 442176292, "xacc": 0, "yacc": 0, "zacc": -1001, "xgyro": 0, "ygyro": 0, "zgyro": 0, "xmag": 134, "ymag": 196, "zmag": -528, "temperature": 4500}}
{"timestamp": 1772979914.8817296, "type": "SCALED_IMU3", "data": {"mavpackettype": "SCALED_IMU3", "time_boot_ms": 442176292, "xacc": 0, "yacc": 0, "zacc": 0, "xgyro": 0, "ygyro": 0, "zgyro": 0, "xmag": 134, "ymag": 196, "zmag": -528, "temperature": 0}}
{"timestamp": 1772979914.881836, "type": "SCALED_PRESSURE", "data": {"mavpackettype": "SCALED_PRESSURE", "time_boot_ms": 442176292, "press_abs": 945.0282592773438, "press_diff": 0.0, "temperature": 3120, "temperature_press_diff": 0}}
{"timestamp": 1772979914.8819468, "type": "SCALED_PRESSURE2", "data": {"mavpackettype": "SCALED_PRESSURE2", "time_boot_ms": 442176292, "press_abs": 945.0472412109375, "press_diff": 0.0, "temperature": 3120, "temperature_press_diff": 0}}
{"timestamp": 1772979914.8822124, "type": "GPS_RAW_INT", "data": {"mavpackettype": "GPS_RAW_INT", "time_usec": 442176163000, "fix_type": 6, "lat": -353632622, "lon": 1491652379, "alt": 584090, "eph": 121, "epv": 200, "vel": 0, "cog": 22939, "satellites_visible": 10, "alt_ellipsoid": 584090, "h_acc": 300, "v_acc": 300, "vel_acc": 0, "hdg_acc": 0, "yaw": 0}}
{"timestamp": 1772979914.8824327, "type": "SYSTEM_TIME", "data": {"mavpackettype": "SYSTEM_TIME", "time_unix_usec": 1772824746129810, "time_boot_ms": 442176292}}
{"timestamp": 1772979914.8825617, "type": "SIMSTATE", "data": {"mavpackettype": "SIMSTATE", "roll": 0.0, "pitch": 0.0, "yaw": -0.747543454170227, "xacc": -1.2433897855735815e-21, "yacc": 4.2614244895457925e-21, "zacc": -9.806650161743164, "xgyro": 8.407790785948902e-43, "ygyro": 8.407790785948902e-43, "zgyro": 8.940695806813892e-06, "lat": -353632622, "lng": 1491652379}}
{"timestamp": 1772979914.8828995, "type": "WIND", "data": {"mavpackettype": "WIND", "direction": -180.0, "speed": 0.0, "speed_z": 0.0}}
{"timestamp": 1772979914.8830395, "type": "TERRAIN_REPORT", "data": {"mavpackettype": "TERRAIN_REPORT", "lat": -353632622, "lon": 1491652377, "spacing": 100, "terrain_height": 584.0801391601562, "current_height": -0.0001220703125, "pending": 0, "loaded": 616}}
{"timestamp": 1772979914.8832204, "type": "EKF_STATUS_REPORT", "data": {"mavpackettype": "EKF_STATUS_REPORT", "flags": 831, "velocity_variance": 0.008713536895811558, "pos_horiz_variance": 0.005190371535718441, "pos_vert_variance": 2.4545897758798674e-05, "compass_variance": 0.013766394928097725, "terrain_alt_variance": 0.0, "airspeed_variance": 0.0}}
{"timestamp": 1772979914.8834321, "type": "LOCAL_POSITION_NED", "data": {"mavpackettype": "LOCAL_POSITION_NED", "time_boot_ms": 442176292, "x": -0.010794983245432377, "y": 0.02629276178777218, "z": 0.006529752630740404, "vx": 0.00024724178365431726, "vy": -0.023606320843100548, "vz": 5.6241849961224943e-05}}
{"timestamp": 1772979914.8835888, "type": "VIBRATION", "data": {"mavpackettype": "VIBRATION", "time_usec": 442176292873, "vibration_x": 0.0028081368654966354, "vibration_y": 0.0029301249887794256, "vibration_z": 0.0027680068742483854, "clipping_0": 0, "clipping_1": 0, "clipping_2": 0}}
{"timestamp": 1772979914.8838596, "type": "BATTERY_STATUS", "data": {"mavpackettype": "BATTERY_STATUS", "id": 0, "battery_function": 0, "type": 0, "temperature": 32767, "voltages": [12600, 65535, 65535, 65535, 65535, 65535, 65535, 65535, 65535, 65535], "current_battery": 0, "current_consumed": 1600, "energy_consumed": 726, "battery_remaining": 51, "time_remaining": 0, "charge_state": 1, "voltages_ext": [0, 0, 0, 0], "mode": 0, "fault_bitmask": 0}}
{"timestamp": 1772979914.8839772, "type": "ESC_TELEMETRY_1_TO_4", "data": {"mavpackettype": "ESC_TELEMETRY_1_TO_4", "temperature": [32, 32, 32, 32], "voltage": [1679, 1679, 1679, 1679], "current": [80, 80, 80, 80], "totalcurrent": [1, 1, 1, 1], "rpm": [0, 0, 0, 0], "count": [51988, 51988, 51988, 51988]}}
{"timestamp": 1772979914.910137, "type": "FLIGHT_INFORMATION", "data": {"mavpackettype": "FLIGHT_INFORMATION", "time_boot_ms": 442176480, "arming_time_utc": 0, "takeoff_time_utc": 0, "flight_uuid": 0}}
{"timestamp": 1772979914.9259322, "type": "AHRS", "data": {"mavpackettype": "AHRS", "omegaIx": -0.0005364497192203999, "omegaIy": -0.0005533485091291368, "omegaIz": -0.0010819848394021392, "accel_weight": 0.0, "renorm_val": 0.0, "error_rp": 0.0023465731646865606, "error_yaw": 0.0014110025949776173}}
{"timestamp": 1772979914.9264104, "type": "AHRS2", "data": {"mavpackettype": "AHRS2", "roll": -0.0015601511113345623, "pitch": -0.0017833593301475048, "yaw": -0.743740975856781, "altitude": 584.0800170898438, "lat": -353632622, "lng": 1491652379}}
{"timestamp": 1772979914.9267766, "type": "ATTITUDE", "data": {"mavpackettype": "ATTITUDE", "time_boot_ms": 442176542, "roll": 0.0025196631904691458, "pitch": -0.0007174898637458682, "yaw": -0.7703186273574829, "rollspeed": -0.00017423011013306677, "pitchspeed": -0.00026473557227291167, "yawspeed": -0.0008209121297113597}}
{"timestamp": 1772979914.9270108, "type": "GLOBAL_POSITION_INT", "data": {"mavpackettype": "GLOBAL_POSITION_INT", "time_boot_ms": 442176542, "lat": -353632622, "lon": 1491652377, "alt": 584080, "relative_alt": 3, "vx": 0, "vy": -2, "vz": 0, "hdg": 31587}}
{"timestamp": 1772979914.9274368, "type": "VFR_HUD", "data": {"mavpackettype": "VFR_HUD", "airspeed": 0.023724762722849846, "groundspeed": 0.023724552243947983, "heading": 315, "throttle": 0, "alt": 584.0800170898438, "climb": -0.00010049829870695248}}
{"timestamp": 1772979914.9280317, "type": "SYS_STATUS", "data": {"mavpackettype": "SYS_STATUS", "onboard_control_sensors_present": 1399979055, "onboard_control_sensors_enabled": 1382128687, "onboard_control_sensors_health": 1467063343, "load": 0, "voltage_battery": 12600, "current_battery": 0, "battery_remaining": 51, "drop_rate_comm": 0, "errors_comm": 0, "errors_count1": 0, "errors_count2": 0, "errors_count3": 0, "errors_count4": 0}}
{"timestamp": 1772979914.9283085, "type": "POWER_STATUS", "data": {"mavpackettype": "POWER_STATUS", "Vcc": 5000, "Vservo": 0, "flags": 0}}
{"timestamp": 1772979914.9284449, "type": "MEMINFO", "data": {"mavpackettype": "MEMINFO", "brkval": 0, "freemem": 65535, "freemem32": 524288}}
{"timestamp": 1772979914.9286983, "type": "NAV_CONTROLLER_OUTPUT", "data": {"mavpackettype": "NAV_CONTROLLER_OUTPUT", "nav_roll": -0.0001322249590884894, "nav_pitch": -2.4937549824244343e-05, "nav_bearing": -44, "target_bearing": 0, "wp_dist": 0, "alt_error": 0.0, "aspd_error": 0.0, "xtrack_error": 0.0}}
{"timestamp": 1772979914.9290216, "type": "MISSION_CURRENT", "data": {"mavpackettype": "MISSION_CURRENT", "seq": 0, "total": 1, "mission_state": 2, "mission_mode": 0}}
{"timestamp": 1772979914.9292717, "type": "SERVO_OUTPUT_RAW", "data": {"mavpackettype": "SERVO_OUTPUT_RAW", "time_usec": 4089878581, "port": 0, "servo1_raw": 1000, "servo2_raw": 1000, "servo3_raw": 1000, "servo4_raw": 1000, "servo5_raw": 0, "servo6_raw": 0, "servo7_raw": 0, "servo8_raw": 0, "servo9_raw": 0, "servo10_raw": 0, "servo11_raw": 0, "servo12_raw": 0, "servo13_raw": 0, "servo14_raw": 0, "servo15_raw": 0, "servo16_raw": 0}}
{"timestamp": 1772979914.9293747, "type": "RC_CHANNELS", "data": {"mavpackettype": "RC_CHANNELS", "time_boot_ms": 442176542, "chancount": 8, "chan1_raw": 1500, "chan2_raw": 1500, "chan3_raw": 1000, "chan4_raw": 1500, "chan5_raw": 1800, "chan6_raw": 1000, "chan7_raw": 1000, "chan8_raw": 1800, "chan9_raw": 0, "chan10_raw": 0, "chan11_raw": 0, "chan12_raw": 0, "chan13_raw": 0, "chan14_raw": 0, "chan15_raw": 0, "chan16_raw": 0, "chan17_raw": 0, "chan18_raw": 0, "rssi": 255}}
{"timestamp": 1772979914.9295883, "type": "RAW_IMU", "data": {"mavpackettype": "RAW_IMU", "time_usec": 442176542773, "xacc": 0, "yacc": 0, "zacc": -1001, "xgyro": 0, "ygyro": 0, "zgyro": 0, "xmag": 134, "ymag": 196, "zmag": -528, "id": 0, "temperature": 4500}}
{"timestamp": 1772979914.9297078, "type": "SCALED_IMU2", "data": {"mavpackettype": "SCALED_IMU2", "time_boot_ms": 442176542, "xacc": 0, "yacc": 0, "zacc": -1001, "xgyro": 0, "ygyro": 0, "zgyro": 0, "xmag": 134, "ymag": 196, "zmag": -528, "temperature": 4500}}
{"timestamp": 1772979914.9298177, "type": "SCALED_IMU3", "data": {"mavpackettype": "SCALED_IMU3", "time_boot_ms": 442176542, "xacc": 0, "yacc": 0, "zacc": 0, "xgyro": 0, "ygyro": 0, "zgyro": 0, "xmag": 134, "ymag": 196, "zmag": -528, "temperature": 0}}
{"timestamp": 1772979914.9299362, "type": "SCALED_PRESSURE", "data": {"mavpackettype": "SCALED_PRESSURE", "time_boot_ms": 442176542, "press_abs": 945.0282592773438, "press_diff": 0.0, "temperature": 3120, "temperature_press_diff": 0}}
{"timestamp": 1772979914.9301522, "type": "SCALED_PRESSURE2", "data": {"mavpackettype": "SCALED_PRESSURE2", "time_boot_ms": 442176542, "press_abs": 945.0302734375, "press_diff": 0.0, "temperature": 3120, "temperature_press_diff": 0}}
{"timestamp": 1772979914.9303532, "type": "GPS_RAW_INT", "data": {"mavpackettype": "GPS_RAW_INT", "time_usec": 442176363000, "fix_type": 6, "lat": -353632622, "lon": 1491652379, "alt": 584090, "eph": 121, "epv": 200, "vel": 0, "cog": 22939, "satellites_visible": 10, "alt_ellipsoid": 584090, "h_acc": 300, "v_acc": 300, "vel_acc": 0, "hdg_acc": 0, "yaw": 0}}
{"timestamp": 1772979914.9305677, "type": "SYSTEM_TIME", "data": {"mavpackettype": "SYSTEM_TIME", "time_unix_usec": 1772824746379710, "time_boot_ms": 442176542}}
{"timestamp": 1772979914.9306855, "type": "SIMSTATE", "data": {"mavpackettype": "SIMSTATE", "roll": 0.0, "pitch": 0.0, "yaw": -0.747543454170227, "xacc": -1.2433897855735815e-21, "yacc": 4.2614244895457925e-21, "zacc": -9.806650161743164, "xgyro": 8.407790785948902e-43, "ygyro": 8.407790785948902e-43, "zgyro": 8.940695806813892e-06, "lat": -353632622, "lng": 1491652379}}
{"timestamp": 1772979914.9308228, "type": "WIND", "data": {"mavpackettype": "WIND", "direction": -180.0, "speed": 0.0, "speed_z": 0.0}}
{"timestamp": 1772979914.9315665, "type": "TERRAIN_REPORT", "data": {"mavpackettype": "TERRAIN_REPORT", "lat": -353632622, "lon": 1491652377, "spacing": 100, "terrain_height": 584.0801391601562, "current_height": -0.0001220703125, "pending": 0, "loaded": 616}}
{"timestamp": 1772979914.9317048, "type": "EKF_STATUS_REPORT", "data": {"mavpackettype": "EKF_STATUS_REPORT", "flags": 831, "velocity_variance": 0.008719857782125473, "pos_horiz_variance": 0.005177725572139025, "pos_vert_variance": 2.4014532755245455e-05, "compass_variance": 0.013761994428932667, "terrain_alt_variance": 0.0, "airspeed_variance": 0.0}}
{"timestamp": 1772979914.9318883, "type": "LOCAL_POSITION_NED", "data": {"mavpackettype": "LOCAL_POSITION_NED", "time_boot_ms": 442176542, "x": -0.01083303615450859, "y": 0.026163455098867416, "z": 0.0065198736265301704, "vx": 0.00012008580233668908, "vy": -0.02372424677014351, "vz": 0.00010049829870695248}}
{"timestamp": 1772979914.9320962, "type": "VIBRATION", "data": {"mavpackettype": "VIBRATION", "time_usec": 442176542773, "vibration_x": 0.0029246024787425995, "vibration_y": 0.0025505083613097668, "vibration_z": 0.0026941196992993355, "clipping_0": 0, "clipping_1": 0, "clipping_2": 0}}
{"timestamp": 1772979914.9322608, "type": "BATTERY_STATUS", "data": {"mavpackettype": "BATTERY_STATUS", "id": 0, "battery_function": 0, "type": 0, "temperature": 32767, "voltages": [12600, 65535, 65535, 65535, 65535, 65535, 65535, 65535, 65535, 65535], "current_battery": 0, "current_consumed": 1600, "energy_consumed": 726, "battery_remaining": 51, "time_remaining": 0, "charge_state": 1, "voltages_ext": [0, 0, 0, 0], "mode": 0, "fault_bitmask": 0}}
{"timestamp": 1772979914.9323416, "type": "ESC_TELEMETRY_1_TO_4", "data": {"mavpackettype": "ESC_TELEMETRY_1_TO_4", "temperature": [32, 32, 32, 32], "voltage": [1679, 1679, 1679, 1679], "current": [80, 80, 80, 80], "totalcurrent": [1, 1, 1, 1], "rpm": [0, 0, 0, 0], "count": [52088, 52088, 52088, 52088]}}
{"timestamp": 1772979914.9760234, "type": "AHRS", "data": {"mavpackettype": "AHRS", "omegaIx": -0.0005332910222932696, "omegaIy": -0.0005501681589521468, "omegaIz": -0.001077072462067008, "accel_weight": 0.0, "renorm_val": 0.0, "error_rp": 0.0023407686967402697, "error_yaw": 0.0014225705526769161}}
{"timestamp": 1772979914.976498, "type": "AHRS2", "data": {"mavpackettype": "AHRS2", "roll": -0.0015581012703478336, "pitch": -0.001785448519513011, "yaw": -0.7437462210655212, "altitude": 584.0800170898438, "lat": -353632622, "lng": 1491652379}}
{"timestamp": 1772979914.9768748, "type": "ATTITUDE", "data": {"mavpackettype": "ATTITUDE", "time_boot_ms": 442176792, "roll": 0.0025224853307008743, "pitch": -0.0007202171254903078, "yaw": -0.7703225016593933, "rollspeed": -0.00020066823344677687, "pitchspeed": -0.00019219491514377296, "yawspeed": -0.0007635387592017651}}
{"timestamp": 1772979914.9773734, "type": "GLOBAL_POSITION_INT", "data": {"mavpackettype": "GLOBAL_POSITION_INT", "time_boot_ms": 442176792, "lat": -353632622, "lon": 1491652377, "alt": 584080, "relative_alt": 3, "vx": 0, "vy": -2, "vz": 0, "hdg": 31587}}
{"timestamp": 1772979914.977556, "type": "VFR_HUD", "data": {"mavpackettype": "VFR_HUD", "airspeed": 0.02389673702418804, "groundspeed": 0.02389637567102909, "heading": 315, "throttle": 0, "alt": 584.0800170898438, "climb": -0.00013093168672639877}}
{"timestamp": 1772979914.978683, "type": "SYS_STATUS", "data": {"mavpackettype": "SYS_STATUS", "onboard_control_sensors_present": 1399979055, "onboard_control_sensors_enabled": 1382128687, "onboard_control_sensors_health": 1467063343, "load": 0, "voltage_battery": 12600, "current_battery": 0, "battery_remaining": 51, "drop_rate_comm": 0, "errors_comm": 0, "errors_count1": 0, "errors_count2": 0, "errors_count3": 0, "errors_count4": 0}}
{"timestamp": 1772979914.9792047, "type": "POWER_STATUS", "data": {"mavpackettype": "POWER_STATUS", "Vcc": 5000, "Vservo": 0, "flags": 0}}
{"timestamp": 1772979914.9799762, "type": "MEMINFO", "data": {"mavpackettype": "MEMINFO", "brkval": 0, "freemem": 65535, "freemem32": 524288}}
{"timestamp": 1772979914.9801533, "type": "NAV_CONTROLLER_OUTPUT", "data": {"mavpackettype": "NAV_CONTROLLER_OUTPUT", "nav_roll": -0.00013222501729615033, "nav_pitch": -2.4937560738180764e-05, "nav_bearing": -44, "target_bearing": 0, "wp_dist": 0, "alt_error": 0.0, "aspd_error": 0.0, "xtrack_error": 0.0}}
{"timestamp": 1772979914.9807765, "type": "MISSION_CURRENT", "data": {"mavpackettype": "MISSION_CURRENT", "seq": 0, "total": 1, "mission_state": 2, "mission_mode": 0}}
{"timestamp": 1772979914.981567, "type": "SERVO_OUTPUT_RAW", "data": {"mavpackettype": "SERVO_OUTPUT_RAW", "time_usec": 4090128481, "port": 0, "servo1_raw": 1000, "servo2_raw": 1000, "servo3_raw": 1000, "servo4_raw": 1000, "servo5_raw": 0, "servo6_raw": 0, "servo7_raw": 0, "servo8_raw": 0, "servo9_raw": 0, "servo10_raw": 0, "servo11_raw": 0, "servo12_raw": 0, "servo13_raw": 0, "servo14_raw": 0, "servo15_raw": 0, "servo16_raw": 0}}
{"timestamp": 1772979914.9816527, "type": "RC_CHANNELS", "data": {"mavpackettype": "RC_CHANNELS", "time_boot_ms": 442176792, "chancount": 8, "chan1_raw": 1500, "chan2_raw": 1500, "chan3_raw": 1000, "chan4_raw": 1500, "chan5_raw": 1800, "chan6_raw": 1000, "chan7_raw": 1000, "chan8_raw": 1800, "chan9_raw": 0, "chan10_raw": 0, "chan11_raw": 0, "chan12_raw": 0, "chan13_raw": 0, "chan14_raw": 0, "chan15_raw": 0, "chan16_raw": 0, "chan17_raw": 0, "chan18_raw": 0, "rssi": 255}}
{"timestamp": 1772979914.9819393, "type": "RAW_IMU", "data": {"mavpackettype": "RAW_IMU", "time_usec": 442176792673, "xacc": 0, "yacc": 0, "zacc": -1000, "xgyro": 0, "ygyro": 0, "zgyro": 0, "xmag": 134, "ymag": 196, "zmag": -528, "id": 0, "temperature": 4500}}
{"timestamp": 1772979914.982281, "type": "SCALED_IMU2", "data": {"mavpackettype": "SCALED_IMU2", "time_boot_ms": 442176792, "xacc": 0, "yacc": 0, "zacc": -1001, "xgyro": 0, "ygyro": 0, "zgyro": 0, "xmag": 134, "ymag": 196, "zmag": -528, "temperature": 4500}}
{"timestamp": 1772979914.9827542, "type": "SCALED_IMU3", "data": {"mavpackettype": "SCALED_IMU3", "time_boot_ms": 442176792, "xacc": 0, "yacc": 0, "zacc": 0, "xgyro": 0, "ygyro": 0, "zgyro": 0, "xmag": 134, "ymag": 196, "zmag": -528, "temperature": 0}}
{"timestamp": 1772979914.9833384, "type": "SCALED_PRESSURE", "data": {"mavpackettype": "SCALED_PRESSURE", "time_boot_ms": 442176792, "press_abs": 945.0282592773438, "press_diff": 0.0, "temperature": 3120, "temperature_press_diff": 0}}
{"timestamp": 1772979914.9835474, "type": "SCALED_PRESSURE2", "data": {"mavpackettype": "SCALED_PRESSURE2", "time_boot_ms": 442176792, "press_abs": 945.0491943359375, "press_diff": 0.0, "temperature": 3120, "temperature_press_diff": 0}}
{"timestamp": 1772979914.98388, "type": "GPS_RAW_INT", "data": {"mavpackettype": "GPS_RAW_INT", "time_usec": 442176763000, "fix_type": 6, "lat": -353632622, "lon": 1491652379, "alt": 584090, "eph": 121, "epv": 200, "vel": 0, "cog": 22939, "satellites_visible": 10, "alt_ellipsoid": 584090, "h_acc": 300, "v_acc": 300, "vel_acc": 0, "hdg_acc": 0, "yaw": 0}}
{"timestamp": 1772979914.9841082, "type": "SYSTEM_TIME", "data": {"mavpackettype": "SYSTEM_TIME", "time_unix_usec": 1772824746629610, "time_boot_ms": 442176792}}
{"timestamp": 1772979914.9844713, "type": "SIMSTATE", "data": {"mavpackettype": "SIMSTATE", "roll": 0.0, "pitch": 0.0, "yaw": -0.747543454170227, "xacc": -1.2433897855735815e-21, "yacc": 4.2614244895457925e-21, "zacc": -9.806650161743164, "xgyro": 8.407790785948902e-43, "ygyro": 8.407790785948902e-43, "zgyro": 8.940695806813892e-06, "lat": -353632622, "lng": 1491652379}}
{"timestamp": 1772979914.9847047, "type": "WIND", "data": {"mavpackettype": "WIND", "direction": -180.0, "speed": 0.0, "speed_z": 0.0}}
{"timestamp": 1772979914.9848886, "type": "TERRAIN_REPORT", "data": {"mavpackettype": "TERRAIN_REPORT", "lat": -353632622, "lon": 1491652377, "spacing": 100, "terrain_height": 584.0801391601562, "current_height": -0.0001220703125, "pending": 0, "loaded": 616}}
{"timestamp": 1772979914.9851685, "type": "EKF_STATUS_REPORT", "data": {"mavpackettype": "EKF_STATUS_REPORT", "flags": 831, "velocity_variance": 0.00871871318668127, "pos_horiz_variance": 0.005167605355381966, "pos_vert_variance": 2.3690965463174507e-05, "compass_variance": 0.013815184123814106, "terrain_alt_variance": 0.0, "airspeed_variance": 0.0}}
{"timestamp": 1772979914.9856129, "type": "LOCAL_POSITION_NED", "data": {"mavpackettype": "LOCAL_POSITION_NED", "time_boot_ms": 442176792, "x": -0.010867366567254066, "y": 0.025861365720629692, "z": 0.006518274545669556, "vx": 0.00015602275379933417, "vy": -0.02389586716890335, "vz": 0.00013093168672639877}}
{"timestamp": 1772979914.9858606, "type": "VIBRATION", "data": {"mavpackettype": "VIBRATION", "time_usec": 442176792673, "vibration_x": 0.002437039278447628, "vibration_y": 0.002739324001595378, "vibration_z": 0.0028991196304559708, "clipping_0": 0, "clipping_1": 0, "clipping_2": 0}}
{"timestamp": 1772979914.9861426, "type": "BATTERY_STATUS", "data": {"mavpackettype": "BATTERY_STATUS", "id": 0, "battery_function": 0, "type": 0, "temperature": 32767, "voltages": [12600, 65535, 65535, 65535, 65535, 65535, 65535, 65535, 65535, 65535], "current_battery": 0, "current_consumed": 1600, "energy_consumed": 726, "battery_remaining": 51, "time_remaining": 0, "charge_state": 1, "voltages_ext": [0, 0, 0, 0], "mode": 0, "fault_bitmask": 0}}
{"timestamp": 1772979914.9862907, "type": "ESC_TELEMETRY_1_TO_4", "data": {"mavpackettype": "ESC_TELEMETRY_1_TO_4", "temperature": [32, 32, 32, 32], "voltage": [1679, 1679, 1679, 1679], "current": [80, 80, 80, 80], "totalcurrent": [1, 1, 1, 1], "rpm": [0, 0, 0, 0], "count": [52188, 52188, 52188, 52188]}}
{"timestamp": 1772979915.0092814, "type": "HEARTBEAT", "data": {"mavpackettype": "HEARTBEAT", "type": 2, "autopilot": 3, "base_mode": 81, "custom_mode": 0, "system_status": 3, "mavlink_version": 3}}
{"timestamp": 1772979915.0098999, "type": "FLIGHT_INFORMATION", "data": {"mavpackettype": "FLIGHT_INFORMATION", "time_boot_ms": 442176980, "arming_time_utc": 0, "takeoff_time_utc": 0, "flight_uuid": 0}}
{"timestamp": 1772979915.02607, "type": "AHRS", "data": {"mavpackettype": "AHRS", "omegaIx": -0.0005272671696729958, "omegaIy": -0.0005441817920655012, "omegaIz": -0.0010737319244071841, "accel_weight": 0.0, "renorm_val": 0.0, "error_rp": 0.0023418881464749575, "error_yaw": 0.0014322578208521008}}
{"timestamp": 1772979915.0266042, "type": "AHRS2", "data": {"mavpackettype": "AHRS2", "roll": -0.0015656474279239774, "pitch": -0.0017899408703669906, "yaw": -0.7437559962272644, "altitude": 584.0800170898438, "lat": -353632622, "lng": 1491652379}}
{"timestamp": 1772979915.026964, "type": "ATTITUDE", "data": {"mavpackettype": "ATTITUDE", "time_boot_ms": 442177042, "roll": 0.0025261123664677143, "pitch": -0.0007170164026319981, "yaw": -0.7703203558921814, "rollspeed": -0.00013929823762737215, "pitchspeed": -0.0002439083473291248, "yawspeed": -0.0007956987828947604}}
{"timestamp": 1772979915.0274212, "type": "GLOBAL_POSITION_INT", "data": {"mavpackettype": "GLOBAL_POSITION_INT", "time_boot_ms": 442177042, "lat": -353632622, "lon": 1491652377, "alt": 584080, "relative_alt": 3, "vx": 0, "vy": -2, "vz": 0, "hdg": 31587}}
{"timestamp": 1772979915.0276725, "type": "VFR_HUD", "data": {"mavpackettype": "VFR_HUD", "airspeed": 0.023690953850746155, "groundspeed": 0.023690562695264816, "heading": 315, "throttle": 0, "alt": 584.0800170898438, "climb": -0.00013600263628177345}}
{"timestamp": 1772979915.028028, "type": "SYS_STATUS", "data": {"mavpackettype": "SYS_STATUS", "onboard_control_sensors_present": 1399979055, "onboard_control_sensors_enabled": 1382128687, "onboard_control_sensors_health": 1467063343, "load": 0, "voltage_battery": 12600, "current_battery": 0, "battery_remaining": 51, "drop_rate_comm": 0, "errors_comm": 0, "errors_count1": 0, "errors_count2": 0, "errors_count3": 0, "errors_count4": 0}}
{"timestamp": 1772979915.0282407, "type": "POWER_STATUS", "data": {"mavpackettype": "POWER_STATUS", "Vcc": 5000, "Vservo": 0, "flags": 0}}
{"timestamp": 1772979915.028615, "type": "MEMINFO", "data": {"mavpackettype": "MEMINFO", "brkval": 0, "freemem": 65535, "freemem32": 524288}}
{"timestamp": 1772979915.0286777, "type": "NAV_CONTROLLER_OUTPUT", "data": {"mavpackettype": "NAV_CONTROLLER_OUTPUT", "nav_roll": -0.00013222501729615033, "nav_pitch": -2.493755891919136e-05, "nav_bearing": -44, "target_bearing": 0, "wp_dist": 0, "alt_error": 0.0, "aspd_error": 0.0, "xtrack_error": 0.0}}
{"timestamp": 1772979915.0287797, "type": "MISSION_CURRENT", "data": {"mavpackettype": "MISSION_CURRENT", "seq": 0, "total": 1, "mission_state": 2, "mission_mode": 0}}
{"timestamp": 1772979915.0289981, "type": "SERVO_OUTPUT_RAW", "data": {"mavpackettype": "SERVO_OUTPUT_RAW", "time_usec": 4090378381, "port": 0, "servo1_raw": 1000, "servo2_raw": 1000, "servo3_raw": 1000, "servo4_raw": 1000, "servo5_raw": 0, "servo6_raw": 0, "servo7_raw": 0, "servo8_raw": 0, "servo9_raw": 0, "servo10_raw": 0, "servo11_raw": 0, "servo12_raw": 0, "servo13_raw": 0, "servo14_raw": 0, "servo15_raw": 0, "servo16_raw": 0}}
{"timestamp": 1772979915.0291524, "type": "RC_CHANNELS", "data": {"mavpackettype": "RC_CHANNELS", "time_boot_ms": 442177042, "chancount": 8, "chan1_raw": 1500, "chan2_raw": 1500, "chan3_raw": 1000, "chan4_raw": 1500, "chan5_raw": 1800, "chan6_raw": 1000, "chan7_raw": 1000, "chan8_raw": 1800, "chan9_raw": 0, "chan10_raw": 0, "chan11_raw": 0, "chan12_raw": 0, "chan13_raw": 0, "chan14_raw": 0, "chan15_raw": 0, "chan16_raw": 0, "chan17_raw": 0, "chan18_raw": 0, "rssi": 255}}
{"timestamp": 1772979915.029378, "type": "RAW_IMU", "data": {"mavpackettype": "RAW_IMU", "time_usec": 442177042573, "xacc": 0, "yacc": 0, "zacc": -1001, "xgyro": 0, "ygyro": 0, "zgyro": 0, "xmag": 134, "ymag": 196, "zmag": -528, "id": 0, "temperature": 4500}}
{"timestamp": 1772979915.0294745, "type": "SCALED_IMU2", "data": {"mavpackettype": "SCALED_IMU2", "time_boot_ms": 442177042, "xacc": 0, "yacc": 0, "zacc": -1001, "xgyro": 0, "ygyro": 0, "zgyro": 0, "xmag": 134, "ymag": 196, "zmag": -528, "temperature": 4500}}
{"timestamp": 1772979915.029566, "type": "SCALED_IMU3", "data": {"mavpackettype": "SCALED_IMU3", "time_boot_ms": 442177042, "xacc": 0, "yacc": 0, "zacc": 0, "xgyro": 0, "ygyro": 0, "zgyro": 0, "xmag": 134, "ymag": 196, "zmag": -528, "temperature": 0}}
{"timestamp": 1772979915.029841, "type": "SCALED_PRESSURE", "data": {"mavpackettype": "SCALED_PRESSURE", "time_boot_ms": 442177042, "press_abs": 945.0282592773438, "press_diff": 0.0, "temperature": 3120, "temperature_press_diff": 0}}
{"timestamp": 1772979915.0299625, "type": "SCALED_PRESSURE2", "data": {"mavpackettype": "SCALED_PRESSURE2", "time_boot_ms": 442177042, "press_abs": 945.017578125, "press_diff": 0.0, "temperature": 3120, "temperature_press_diff": 0}}
{"timestamp": 1772979915.0302074, "type": "GPS_RAW_INT", "data": {"mavpackettype": "GPS_RAW_INT", "time_usec": 442176963000, "fix_type": 6, "lat": -353632622, "lon": 1491652379, "alt": 584090, "eph": 121, "epv": 200, "vel": 0, "cog": 22939, "satellites_visible": 10, "alt_ellipsoid": 584090, "h_acc": 300, "v_acc": 300, "vel_acc": 0, "hdg_acc": 0, "yaw": 0}}
{"timestamp": 1772979915.0305145, "type": "SYSTEM_TIME", "data": {"mavpackettype": "SYSTEM_TIME", "time_unix_usec": 1772824746879510, "time_boot_ms": 442177042}}
{"timestamp": 1772979915.0307226, "type": "SIMSTATE", "data": {"mavpackettype": "SIMSTATE", "roll": 0.0, "pitch": 0.0, "yaw": -0.747543454170227, "xacc": -1.2433897855735815e-21, "yacc": 4.2614244895457925e-21, "zacc": -9.806650161743164, "xgyro": 8.407790785948902e-43, "ygyro": 8.407790785948902e-43, "zgyro": 8.940695806813892e-06, "lat": -353632622, "lng": 1491652379}}
{"timestamp": 1772979915.0308375, "type": "WIND", "data": {"mavpackettype": "WIND", "direction": -180.0, "speed": 0.0, "speed_z": 0.0}}
{"timestamp": 1772979915.0309873, "type": "TERRAIN_REPORT", "data": {"mavpackettype": "TERRAIN_REPORT", "lat": -353632622, "lon": 1491652377, "spacing": 100, "terrain_height": 584.0801391601562, "current_height": -0.0001220703125, "pending": 0, "loaded": 616}}
{"timestamp": 1772979915.0312622, "type": "EKF_STATUS_REPORT", "data": {"mavpackettype": "EKF_STATUS_REPORT", "flags": 831, "velocity_variance": 0.008708996698260307, "pos_horiz_variance": 0.00515006622299552, "pos_vert_variance": 2.3539969333796762e-05, "compass_variance": 0.013812637887895107, "terrain_alt_variance": 0.0, "airspeed_variance": 0.0}}
{"timestamp": 1772979915.0313876, "type": "LOCAL_POSITION_NED", "data": {"mavpackettype": "LOCAL_POSITION_NED", "time_boot_ms": 442177042, "x": -0.010893812403082848, "y": 0.026248108595609665, "z": 0.0065162391401827335, "vx": 0.00016159238293766975, "vy": -0.023690011352300644, "vz": 0.00013600263628177345}}
{"timestamp": 1772979915.031558, "type": "VIBRATION", "data": {"mavpackettype": "VIBRATION", "time_usec": 442177042573, "vibration_x": 0.0029491656459867954, "vibration_y": 0.0027459568809717894, "vibration_z": 0.0029146887827664614, "clipping_0": 0, "clipping_1": 0, "clipping_2": 0}}
{"timestamp": 1772979915.0317755, "type": "BATTERY_STATUS", "data": {"mavpackettype": "BATTERY_STATUS", "id": 0, "battery_function": 0, "type": 0, "temperature": 32767, "voltages": [12600, 65535, 65535, 65535, 65535, 65535, 65535, 65535, 65535, 65535], "current_battery": 0, "current_consumed": 1600, "energy_consumed": 726, "battery_remaining": 51, "time_remaining": 0, "charge_state": 1, "voltages_ext": [0, 0, 0, 0], "mode": 0, "fault_bitmask": 0}}
{"timestamp": 1772979915.0318809, "type": "ESC_TELEMETRY_1_TO_4", "data": {"mavpackettype": "ESC_TELEMETRY_1_TO_4", "temperature": [32, 32, 32, 32], "voltage": [1679, 1679, 1679, 1679], "current": [80, 80, 80, 80], "totalcurrent": [1, 1, 1, 1], "rpm": [0, 0, 0, 0], "count": [52288, 52288, 52288, 52288]}}
{"timestamp": 1772979915.0756462, "type": "AHRS", "data": {"mavpackettype": "AHRS", "omegaIx": -0.0005243440973572433, "omegaIy": -0.0005412413738667965, "omegaIz": -0.0010692833457142115, "accel_weight": 0.0, "renorm_val": 0.0, "error_rp": 0.0023497091606259346, "error_yaw": 0.0014456958742812276}}
{"timestamp": 1772979915.076126, "type": "AHRS2", "data": {"mavpackettype": "AHRS2", "roll": -0.0015666346298530698, "pitch": -0.0017903540283441544, "yaw": -0.7437547445297241, "altitude": 584.0800170898438, "lat": -353632622, "lng": 1491652379}}
{"timestamp": 1772979915.0764503, "type": "ATTITUDE", "data": {"mavpackettype": "ATTITUDE", "time_boot_ms": 442177292, "roll": 0.0025354765821248293, "pitch": -0.0007120586815290153, "yaw": -0.7703167796134949, "rollspeed": -0.0002708748506847769, "pitchspeed": -0.0002895159996114671, "yawspeed": -0.0007371255778707564}}
{"timestamp": 1772979915.0770347, "type": "GLOBAL_POSITION_INT", "data": {"mavpackettype": "GLOBAL_POSITION_INT", "time_boot_ms": 442177292, "lat": -353632622, "lon": 1491652377, "alt": 584080, "relative_alt": 3, "vx": 0, "vy": -2, "vz": 0, "hdg": 31587}}
{"timestamp": 1772979915.077233, "type": "VFR_HUD", "data": {"mavpackettype": "VFR_HUD", "airspeed": 0.023611310869455338, "groundspeed": 0.023610368371009827, "heading": 315, "throttle": 0, "alt": 584.0800170898438, "climb": -0.0002108598710037768}}
{"timestamp": 1772979915.0778716, "type": "SYS_STATUS", "data": {"mavpackettype": "SYS_STATUS", "onboard_control_sensors_present": 1399979055, "onboard_control_sensors_enabled": 1382128687, "onboard_control_sensors_health": 1467063343, "load": 0, "voltage_battery": 12600, "current_battery": 0, "battery_remaining": 51, "drop_rate_comm": 0, "errors_comm": 0, "errors_count1": 0, "errors_count2": 0, "errors_count3": 0, "errors_count4": 0}}
{"timestamp": 1772979915.0784056, "type": "POWER_STATUS", "data": {"mavpackettype": "POWER_STATUS", "Vcc": 5000, "Vservo": 0, "flags": 0}}
{"timestamp": 1772979915.0788217, "type": "MEMINFO", "data": {"mavpackettype": "MEMINFO", "brkval": 0, "freemem": 65535, "freemem32": 524288}}
{"timestamp": 1772979915.0792208, "type": "NAV_CONTROLLER_OUTPUT", "data": {"mavpackettype": "NAV_CONTROLLER_OUTPUT", "nav_roll": -0.00013222507550381124, "nav_pitch": -2.493757347110659e-05, "nav_bearing": -44, "target_bearing": 0, "wp_dist": 0, "alt_error": 0.0, "aspd_error": 0.0, "xtrack_error": 0.0}}
{"timestamp": 1772979915.079446, "type": "MISSION_CURRENT", "data": {"mavpackettype": "MISSION_CURRENT", "seq": 0, "total": 1, "mission_state": 2, "mission_mode": 0}}
{"timestamp": 1772979915.0797975, "type": "SERVO_OUTPUT_RAW", "data": {"mavpackettype": "SERVO_OUTPUT_RAW", "time_usec": 4090628281, "port": 0, "servo1_raw": 1000, "servo2_raw": 1000, "servo3_raw": 1000, "servo4_raw": 1000, "servo5_raw": 0, "servo6_raw": 0, "servo7_raw": 0, "servo8_raw": 0, "servo9_raw": 0, "servo10_raw": 0, "servo11_raw": 0, "servo12_raw": 0, "servo13_raw": 0, "servo14_raw": 0, "servo15_raw": 0, "servo16_raw": 0}}
{"timestamp": 1772979915.0799155, "type": "RC_CHANNELS", "data": {"mavpackettype": "RC_CHANNELS", "time_boot_ms": 442177292, "chancount": 8, "chan1_raw": 1500, "chan2_raw": 1500, "chan3_raw": 1000, "chan4_raw": 1500, "chan5_raw": 1800, "chan6_raw": 1000, "chan7_raw": 1000, "chan8_raw": 1800, "chan9_raw": 0, "chan10_raw": 0, "chan11_raw": 0, "chan12_raw": 0, "chan13_raw": 0, "chan14_raw": 0, "chan15_raw": 0, "chan16_raw": 0, "chan17_raw": 0, "chan18_raw": 0, "rssi": 255}}
{"timestamp": 1772979915.0801096, "type": "RAW_IMU", "data": {"mavpackettype": "RAW_IMU", "time_usec": 442177292473, "xacc": 0, "yacc": 0, "zacc": -1001, "xgyro": 0, "ygyro": 0, "zgyro": 0, "xmag": 134, "ymag": 196, "zmag": -528, "id": 0, "temperature": 4500}}
{"timestamp": 1772979915.080305, "type": "SCALED_IMU2", "data": {"mavpackettype": "SCALED_IMU2", "time_boot_ms": 442177292, "xacc": 0, "yacc": 0, "zacc": -1001, "xgyro": 0, "ygyro": 0, "zgyro": 0, "xmag": 134, "ymag": 196, "zmag": -528, "temperature": 4500}}
{"timestamp": 1772979915.0805054, "type": "SCALED_IMU3", "data": {"mavpackettype": "SCALED_IMU3", "time_boot_ms": 442177292, "xacc": 0, "yacc": 0, "zacc": 0, "xgyro": 0, "ygyro": 0, "zgyro": 0, "xmag": 134, "ymag": 196, "zmag": -528, "temperature": 0}}
{"timestamp": 1772979915.0806308, "type": "SCALED_PRESSURE", "data": {"mavpackettype": "SCALED_PRESSURE", "time_boot_ms": 442177292, "press_abs": 945.0282592773438, "press_diff": 0.0, "temperature": 3120, "temperature_press_diff": 0}}
{"timestamp": 1772979915.0808308, "type": "SCALED_PRESSURE2", "data": {"mavpackettype": "SCALED_PRESSURE2", "time_boot_ms": 442177292, "press_abs": 945.0505981445312, "press_diff": 0.0, "temperature": 3120, "temperature_press_diff": 0}}
{"timestamp": 1772979915.0810034, "type": "GPS_RAW_INT", "data": {"mavpackettype": "GPS_RAW_INT", "time_usec": 442177163000, "fix_type": 6, "lat": -353632622, "lon": 1491652379, "alt": 584090, "eph": 121, "epv": 200, "vel": 0, "cog": 22939, "satellites_visible": 10, "alt_ellipsoid": 584090, "h_acc": 300, "v_acc": 300, "vel_acc": 0, "hdg_acc": 0, "yaw": 0}}
{"timestamp": 1772979915.081484, "type": "SYSTEM_TIME", "data": {"mavpackettype": "SYSTEM_TIME", "time_unix_usec": 1772824747129410, "time_boot_ms": 442177292}}
{"timestamp": 1772979915.0817044, "type": "SIMSTATE", "data": {"mavpackettype": "SIMSTATE", "roll": 0.0, "pitch": 0.0, "yaw": -0.747543454170227, "xacc": -1.2433897855735815e-21, "yacc": 4.2614244895457925e-21, "zacc": -9.806650161743164, "xgyro": 8.407790785948902e-43, "ygyro": 8.407790785948902e-43, "zgyro": 8.940695806813892e-06, "lat": -353632622, "lng": 1491652379}}
{"timestamp": 1772979915.0819232, "type": "WIND", "data": {"mavpackettype": "WIND", "direction": -180.0, "speed": 0.0, "speed_z": 0.0}}
{"timestamp": 1772979915.0820591, "type": "TERRAIN_REPORT", "data": {"mavpackettype": "TERRAIN_REPORT", "lat": -353632622, "lon": 1491652377, "spacing": 100, "terrain_height": 584.0801391601562, "current_height": -0.0001220703125, "pending": 0, "loaded": 616}}
{"timestamp": 1772979915.08224, "type": "EKF_STATUS_REPORT", "data": {"mavpackettype": "EKF_STATUS_REPORT", "flags": 831, "velocity_variance": 0.008711344562470913, "pos_horiz_variance": 0.005151764955371618, "pos_vert_variance": 2.2974552848609164e-05, "compass_variance": 0.013746947981417179, "terrain_alt_variance": 0.0, "airspeed_variance": 0.0}}
{"timestamp": 1772979915.0824838, "type": "LOCAL_POSITION_NED", "data": {"mavpackettype": "LOCAL_POSITION_NED", "time_boot_ms": 442177292, "x": -0.010910850949585438, "y": 0.026381060481071472, "z": 0.00652356306090951, "vx": 0.0001439293846487999, "vy": -0.023609930649399757, "vz": 0.0002108598710037768}}
{"timestamp": 1772979915.0826569, "type": "VIBRATION", "data": {"mavpackettype": "VIBRATION", "time_usec": 442177292473, "vibration_x": 0.0027183741331100464, "vibration_y": 0.0026065490674227476, "vibration_z": 0.0029939566738903522, "clipping_0": 0, "clipping_1": 0, "clipping_2": 0}}
{"timestamp": 1772979915.0830734, "type": "BATTERY_STATUS", "data": {"mavpackettype": "BATTERY_STATUS", "id": 0, "battery_function": 0, "type": 0, "temperature": 32767, "voltages": [12600, 65535, 65535, 65535, 65535, 65535, 65535, 65535, 65535, 65535], "current_battery": 0, "current_consumed": 1600, "energy_consumed": 726, "battery_remaining": 51, "time_remaining": 0, "charge_state": 1, "voltages_ext": [0, 0, 0, 0], "mode": 0, "fault_bitmask": 0}}
{"timestamp": 1772979915.0832064, "type": "ESC_TELEMETRY_1_TO_4", "data": {"mavpackettype": "ESC_TELEMETRY_1_TO_4", "temperature": [32, 32, 32, 32], "voltage": [1679, 1679, 1679, 1679], "current": [80, 80, 80, 80], "totalcurrent": [1, 1, 1, 1], "rpm": [0, 0, 0, 0], "count": [52388, 52388, 52388, 52388]}}
{"timestamp": 1772979915.1086226, "type": "FLIGHT_INFORMATION", "data": {"mavpackettype": "FLIGHT_INFORMATION", "time_boot_ms": 442177482, "arming_time_utc": 0, "takeoff_time_utc": 0, "flight_uuid": 0}}
{"timestamp": 1772979915.1252244, "type": "AHRS", "data": {"mavpackettype": "AHRS", "omegaIx": -0.0005214317352510989, "omegaIy": -0.0005383361130952835, "omegaIz": -0.0010663410648703575, "accel_weight": 0.0, "renorm_val": 0.0, "error_rp": 0.0023436201736330986, "error_yaw": 0.0014582397416234016}}
{"timestamp": 1772979915.125364, "type": "AHRS2", "data": {"mavpackettype": "AHRS2", "roll": -0.0015799723332747817, "pitch": -0.00180140882730484, "yaw": -0.7437605261802673, "altitude": 584.0800170898438, "lat": -353632622, "lng": 1491652379}}
{"timestamp": 1772979915.1254692, "type": "ATTITUDE", "data": {"mavpackettype": "ATTITUDE", "time_boot_ms": 442177542, "roll": 0.002528589917346835, "pitch": -0.0007169096497818828, "yaw": -0.7703096270561218, "rollspeed": -0.0002707625098992139, "pitchspeed": -0.00024071696680039167, "yawspeed": -0.0007321351440623403}}
{"timestamp": 1772979915.12613, "type": "GLOBAL_POSITION_INT", "data": {"mavpackettype": "GLOBAL_POSITION_INT", "time_boot_ms": 442177542, "lat": -353632622, "lon": 1491652377, "alt": 584080, "relative_alt": 3, "vx": 0, "vy": -2, "vz": 0, "hdg": 31587}}
{"timestamp": 1772979915.1261814, "type": "VFR_HUD", "data": {"mavpackettype": "VFR_HUD", "airspeed": 0.02365245670080185, "groundspeed": 0.02365133725106716, "heading": 315, "throttle": 0, "alt": 584.0800170898438, "climb": -0.00023022560344543308}}
{"timestamp": 1772979915.1263583, "type": "SYS_STATUS", "data": {"mavpackettype": "SYS_STATUS", "onboard_control_sensors_present": 1399979055, "onboard_control_sensors_enabled": 1382128687, "onboard_control_sensors_health": 1467063343, "load": 0, "voltage_battery": 12600, "current_battery": 0, "battery_remaining": 51, "drop_rate_comm": 0, "errors_comm": 0, "errors_count1": 0, "errors_count2": 0, "errors_count3": 0, "errors_count4": 0}}
{"timestamp": 1772979915.1268609, "type": "POWER_STATUS", "data": {"mavpackettype": "POWER_STATUS", "Vcc": 5000, "Vservo": 0, "flags": 0}}
{"timestamp": 1772979915.1270177, "type": "MEMINFO", "data": {"mavpackettype": "MEMINFO", "brkval": 0, "freemem": 65535, "freemem32": 524288}}
{"timestamp": 1772979915.1273735, "type": "NAV_CONTROLLER_OUTPUT", "data": {"mavpackettype": "NAV_CONTROLLER_OUTPUT", "nav_roll": -0.0001322251046076417, "nav_pitch": -2.4937571652117185e-05, "nav_bearing": -44, "target_bearing": 0, "wp_dist": 0, "alt_error": 0.0, "aspd_error": 0.0, "xtrack_error": 0.0}}
{"timestamp": 1772979915.1278856, "type": "MISSION_CURRENT", "data": {"mavpackettype": "MISSION_CURRENT", "seq": 0, "total": 1, "mission_state": 2, "mission_mode": 0}}
{"timestamp": 1772979915.1281216, "type": "SERVO_OUTPUT_RAW", "data": {"mavpackettype": "SERVO_OUTPUT_RAW", "time_usec": 4090878181, "port": 0, "servo1_raw": 1000, "servo2_raw": 1000, "servo3_raw": 1000, "servo4_raw": 1000, "servo5_raw": 0, "servo6_raw": 0, "servo7_raw": 0, "servo8_raw": 0, "servo9_raw": 0, "servo10_raw": 0, "servo11_raw": 0, "servo12_raw": 0, "servo13_raw": 0, "servo14_raw": 0, "servo15_raw": 0, "servo16_raw": 0}}
{"timestamp": 1772979915.1286345, "type": "RC_CHANNELS", "data": {"mavpackettype": "RC_CHANNELS", "time_boot_ms": 442177542, "chancount": 8, "chan1_raw": 1500, "chan2_raw": 1500, "chan3_raw": 1000, "chan4_raw": 1500, "chan5_raw": 1800, "chan6_raw": 1000, "chan7_raw": 1000, "chan8_raw": 1800, "chan9_raw": 0, "chan10_raw": 0, "chan11_raw": 0, "chan12_raw": 0, "chan13_raw": 0, "chan14_raw": 0, "chan15_raw": 0, "chan16_raw": 0, "chan17_raw": 0, "chan18_raw": 0, "rssi": 255}}
{"timestamp": 1772979915.1288204, "type": "RAW_IMU", "data": {"mavpackettype": "RAW_IMU", "time_usec": 442177542373, "xacc": 0, "yacc": 0, "zacc": -1001, "xgyro": 0, "ygyro": 0, "zgyro": 0, "xmag": 134, "ymag": 196, "zmag": -528, "id": 0, "temperature": 4500}}
{"timestamp": 1772979915.128902, "type": "SCALED_IMU2", "data": {"mavpackettype": "SCALED_IMU2", "time_boot_ms": 442177542, "xacc": 0, "yacc": 0, "zacc": -1001, "xgyro": 0, "ygyro": 0, "zgyro": 0, "xmag": 134, "ymag": 196, "zmag": -528, "temperature": 4500}}
{"timestamp": 1772979915.1294537, "type": "SCALED_IMU3", "data": {"mavpackettype": "SCALED_IMU3", "time_boot_ms": 442177542, "xacc": 0, "yacc": 0, "zacc": 0, "xgyro": 0, "ygyro": 0, "zgyro": 0, "xmag": 134, "ymag": 196, "zmag": -528, "temperature": 0}}
{"timestamp": 1772979915.1297634, "type": "SCALED_PRESSURE", "data": {"mavpackettype": "SCALED_PRESSURE", "time_boot_ms": 442177542, "press_abs": 945.0282592773438, "press_diff": 0.0, "temperature": 3120, "temperature_press_diff": 0}}
{"timestamp": 1772979915.130062, "type": "SCALED_PRESSURE2", "data": {"mavpackettype": "SCALED_PRESSURE2", "time_boot_ms": 442177542, "press_abs": 945.0322265625, "press_diff": 0.0, "temperature": 3120, "temperature_press_diff": 0}}
{"timestamp": 1772979915.130433, "type": "GPS_RAW_INT", "data": {"mavpackettype": "GPS_RAW_INT", "time_usec": 442177363000, "fix_type": 6, "lat": -353632622, "lon": 1491652379, "alt": 584090, "eph": 121, "epv": 200, "vel": 0, "cog": 22939, "satellites_visible": 10, "alt_ellipsoid": 584090, "h_acc": 300, "v_acc": 300, "vel_acc": 0, "hdg_acc": 0, "yaw": 0}}
{"timestamp": 1772979915.1307926, "type": "SYSTEM_TIME", "data": {"mavpackettype": "SYSTEM_TIME", "time_unix_usec": 1772824747379310, "time_boot_ms": 442177542}}
{"timestamp": 1772979915.1311982, "type": "SIMSTATE", "data": {"mavpackettype": "SIMSTATE", "roll": 0.0, "pitch": 0.0, "yaw": -0.747543454170227, "xacc": -1.2433897855735815e-21, "yacc": 4.2614244895457925e-21, "zacc": -9.806650161743164, "xgyro": 8.407790785948902e-43, "ygyro": 8.407790785948902e-43, "zgyro": 8.940695806813892e-06, "lat": -353632622, "lng": 1491652379}}
{"timestamp": 1772979915.1313033, "type": "WIND", "data": {"mavpackettype": "WIND", "direction": -180.0, "speed": 0.0, "speed_z": 0.0}}
{"timestamp": 1772979915.131662, "type": "TERRAIN_REPORT", "data": {"mavpackettype": "TERRAIN_REPORT", "lat": -353632622, "lon": 1491652377, "spacing": 100, "terrain_height": 584.0801391601562, "current_height": -0.0001220703125, "pending": 0, "loaded": 616}}
{"timestamp": 1772979915.1317046, "type": "EKF_STATUS_REPORT", "data": {"mavpackettype": "EKF_STATUS_REPORT", "flags": 831, "velocity_variance": 0.008718139491975307, "pos_horiz_variance": 0.005147626623511314, "pos_vert_variance": 2.3570735720568337e-05, "compass_variance": 0.01374480314552784, "terrain_alt_variance": 0.0, "airspeed_variance": 0.0}}
{"timestamp": 1772979915.1317468, "type": "LOCAL_POSITION_NED", "data": {"mavpackettype": "LOCAL_POSITION_NED", "time_boot_ms": 442177542, "x": -0.010925903916358948, "y": 0.026280811056494713, "z": 0.006543206982314587, "vx": 0.00018101792375091463, "vy": -0.023650644347071648, "vz": 0.00023022560344543308}}
{"timestamp": 1772979915.1318157, "type": "VIBRATION", "data": {"mavpackettype": "VIBRATION", "time_usec": 442177542373, "vibration_x": 0.002763203578069806, "vibration_y": 0.0026497007347643375, "vibration_z": 0.0026294495910406113, "clipping_0": 0, "clipping_1": 0, "clipping_2": 0}}
{"timestamp": 1772979915.1320074, "type": "BATTERY_STATUS", "data": {"mavpackettype": "BATTERY_STATUS", "id": 0, "battery_function": 0, "type": 0, "temperature": 32767, "voltages": [12600, 65535, 65535, 65535, 65535, 65535, 65535, 65535, 65535, 65535], "current_battery": 0, "current_consumed": 1600, "energy_consumed": 726, "battery_remaining": 51, "time_remaining": 0, "charge_state": 1, "voltages_ext": [0, 0, 0, 0], "mode": 0, "fault_bitmask": 0}}
{"timestamp": 1772979915.1322312, "type": "ESC_TELEMETRY_1_TO_4", "data": {"mavpackettype": "ESC_TELEMETRY_1_TO_4", "temperature": [32, 32, 32, 32], "voltage": [1679, 1679, 1679, 1679], "current": [80, 80, 80, 80], "totalcurrent": [1, 1, 1, 1], "rpm": [0, 0, 0, 0], "count": [52488, 52488, 52488, 52488]}}
{"timestamp": 1772979915.1727288, "type": "AHRS", "data": {"mavpackettype": "AHRS", "omegaIx": -0.0005185303161852062, "omegaIy": -0.0005354256718419492, "omegaIz": -0.0010619376553222537, "accel_weight": 0.0, "renorm_val": 0.0, "error_rp": 0.0023496397770941257, "error_yaw": 0.0014899610541760921}}
{"timestamp": 1772979915.1734302, "type": "AHRS2", "data": {"mavpackettype": "AHRS2", "roll": -0.0015877217520028353, "pitch": -0.00180965312756598, "yaw": -0.7437672019004822, "altitude": 584.0800170898438, "lat": -353632622, "lng": 1491652379}}
{"timestamp": 1772979915.173986, "type": "ATTITUDE", "data": {"mavpackettype": "ATTITUDE", "time_boot_ms": 442177792, "roll": 0.002523875329643488, "pitch": -0.0007219876861199737, "yaw": -0.7703137397766113, "rollspeed": -0.00019363290630280972, "pitchspeed": -0.00029010442085564137, "yawspeed": -0.0007698672125115991}}
{"timestamp": 1772979915.1747637, "type": "GLOBAL_POSITION_INT", "data": {"mavpackettype": "GLOBAL_POSITION_INT", "time_boot_ms": 442177792, "lat": -353632622, "lon": 1491652377, "alt": 584080, "relative_alt": 3, "vx": 0, "vy": -2, "vz": 0, "hdg": 31587}}
{"timestamp": 1772979915.1753068, "type": "VFR_HUD", "data": {"mavpackettype": "VFR_HUD", "airspeed": 0.023763107135891914, "groundspeed": 0.023762386292219162, "heading": 315, "throttle": 0, "alt": 584.0800170898438, "climb": -0.00018496077973395586}}
{"timestamp": 1772979915.176069, "type": "SYS_STATUS", "data": {"mavpackettype": "SYS_STATUS", "onboard_control_sensors_present": 1399979055, "onboard_control_sensors_enabled": 1382128687, "onboard_control_sensors_health": 1467063343, "load": 0, "voltage_battery": 12600, "current_battery": 0, "battery_remaining": 51, "drop_rate_comm": 0, "errors_comm": 0, "errors_count1": 0, "errors_count2": 0, "errors_count3": 0, "errors_count4": 0}}
{"timestamp": 1772979915.1772163, "type": "POWER_STATUS", "data": {"mavpackettype": "POWER_STATUS", "Vcc": 5000, "Vservo": 0, "flags": 0}}
{"timestamp": 1772979915.1776094, "type": "MEMINFO", "data": {"mavpackettype": "MEMINFO", "brkval": 0, "freemem": 65535, "freemem32": 524288}}
{"timestamp": 1772979915.1777828, "type": "NAV_CONTROLLER_OUTPUT", "data": {"mavpackettype": "NAV_CONTROLLER_OUTPUT", "nav_roll": -0.00013222513371147215, "nav_pitch": -2.4937597117968835e-05, "nav_bearing": -44, "target_bearing": 0, "wp_dist": 0, "alt_error": 0.0, "aspd_error": 0.0, "xtrack_error": 0.0}}
{"timestamp": 1772979915.179764, "type": "MISSION_CURRENT", "data": {"mavpackettype": "MISSION_CURRENT", "seq": 0, "total": 1, "mission_state": 2, "mission_mode": 0}}
{"timestamp": 1772979915.1804447, "type": "SERVO_OUTPUT_RAW", "data": {"mavpackettype": "SERVO_OUTPUT_RAW", "time_usec": 4091128081, "port": 0, "servo1_raw": 1000, "servo2_raw": 1000, "servo3_raw": 1000, "servo4_raw": 1000, "servo5_raw": 0, "servo6_raw": 0, "servo7_raw": 0, "servo8_raw": 0, "servo9_raw": 0, "servo10_raw": 0, "servo11_raw": 0, "servo12_raw": 0, "servo13_raw": 0, "servo14_raw": 0, "servo15_raw": 0, "servo16_raw": 0}}
{"timestamp": 1772979915.1806164, "type": "RC_CHANNELS", "data": {"mavpackettype": "RC_CHANNELS", "time_boot_ms": 442177792, "chancount": 8, "chan1_raw": 1500, "chan2_raw": 1500, "chan3_raw": 1000, "chan4_raw": 1500, "chan5_raw": 1800, "chan6_raw": 1000, "chan7_raw": 1000, "chan8_raw": 1800, "chan9_raw": 0, "chan10_raw": 0, "chan11_raw": 0, "chan12_raw": 0, "chan13_raw": 0, "chan14_raw": 0, "chan15_raw": 0, "chan16_raw": 0, "chan17_raw": 0, "chan18_raw": 0, "rssi": 255}}
{"timestamp": 1772979915.1811304, "type": "RAW_IMU", "data": {"mavpackettype": "RAW_IMU", "time_usec": 442177792273, "xacc": 0, "yacc": 0, "zacc": -1001, "xgyro": 0, "ygyro": 0, "zgyro": 0, "xmag": 134, "ymag": 196, "zmag": -528, "id": 0, "temperature": 4500}}
{"timestamp": 1772979915.1815581, "type": "SCALED_IMU2", "data": {"mavpackettype": "SCALED_IMU2", "time_boot_ms": 442177792, "xacc": 0, "yacc": 0, "zacc": -1001, "xgyro": 0, "ygyro": 0, "zgyro": 0, "xmag": 134, "ymag": 196, "zmag": -528, "temperature": 4500}}
{"timestamp": 1772979915.1822338, "type": "SCALED_IMU3", "data": {"mavpackettype": "SCALED_IMU3", "time_boot_ms": 442177792, "xacc": 0, "yacc": 0, "zacc": 0, "xgyro": 0, "ygyro": 0, "zgyro": 0, "xmag": 134, "ymag": 196, "zmag": -528, "temperature": 0}}
{"timestamp": 1772979915.1824598, "type": "SCALED_PRESSURE", "data": {"mavpackettype": "SCALED_PRESSURE", "time_boot_ms": 442177792, "press_abs": 945.0282592773438, "press_diff": 0.0, "temperature": 3120, "temperature_press_diff": 0}}
{"timestamp": 1772979915.1829345, "type": "SCALED_PRESSURE2", "data": {"mavpackettype": "SCALED_PRESSURE2", "time_boot_ms": 442177792, "press_abs": 945.0098266601562, "press_diff": 0.0, "temperature": 3120, "temperature_press_diff": 0}}
