{"timestamp": 1772983885.1658251, "type": "FLIGHT_INFORMATION", "data": {"mavpackettype": "FLIGHT_INFORMATION", "time_boot_ms": 460443980, "arming_time_utc": 0, "takeoff_time_utc": 0, "flight_uuid": 0}}
{"timestamp": 1772983885.1722481, "type": "AHRS", "data": {"mavpackettype": "AHRS", "omegaIx": -0.00318484241142869, "omegaIy": -0.0031981721986085176, "omegaIz": -0.0026724638883024454, "accel_weight": 0.0, "renorm_val": 0.0, "error_rp": 0.002345764311030507, "error_yaw": 0.0014385201502591372}}
{"timestamp": 1772983885.172536, "type": "AHRS2", "data": {"mavpackettype": "AHRS2", "roll": 0.0017765715019777417, "pitch": 0.0015765924472361803, "yaw": -0.7511950135231018, "altitude": 584.0800170898438, "lat": -353632622, "lng": 1491652379}}
{"timestamp": 1772983885.1728501, "type": "ATTITUDE", "data": {"mavpackettype": "ATTITUDE", "time_boot_ms": 460444042, "roll": 0.0047081406228244305, "pitch": 0.0014647250063717365, "yaw": -0.7346922159194946, "rollspeed": 0.00035411654971539974, "pitchspeed": 0.0003078992012888193, "yawspeed": 0.0008858295623213053}}
{"timestamp": 1772983885.1731558, "type": "GLOBAL_POSITION_INT", "data": {"mavpackettype": "GLOBAL_POSITION_INT", "time_boot_ms": 460444042, "lat": -353632622, "lon": 1491652381, "alt": 584080, "relative_alt": 3, "vx": 0, "vy": 2, "vz": 0, "hdg": 31791}}
{"timestamp": 1772983885.1733186, "type": "VFR_HUD", "data": {"mavpackettype": "VFR_HUD", "airspeed": 0.023725176230072975, "groundspeed": 0.023722823709249496, "heading": 317, "throttle": 0, "alt": 584.0800170898438, "climb": -0.0003343775460962206}}
{"timestamp": 1772983885.173793, "type": "SYS_STATUS", "data": {"mavpackettype": "SYS_STATUS", "onboard_control_sensors_present": 1399979055, "onboard_control_sensors_enabled": 1382128687, "onboard_control_sensors_health": 1467063343, "load": 0, "voltage_battery": 12600, "current_battery": 0, "battery_remaining": 51, "drop_rate_comm": 0, "errors_comm": 0, "errors_count1": 0, "errors_count2": 0, "errors_count3": 0, "errors_count4": 0}}
{"timestamp": 1772983885.1739798, "type": "POWER_STATUS", "data": {"mavpackettype": "POWER_STATUS", "Vcc": 5000, "Vservo": 0, "flags": 0}}
{"timestamp": 1772983885.1740782, "type": "MEMINFO", "data": {"mavpackettype": "MEMINFO", "brkval": 0, "freemem": 65535, "freemem32": 524288}}
{"timestamp": 1772983885.1741793, "type": "NAV_CONTROLLER_OUTPUT", "data": {"mavpackettype": "NAV_CONTROLLER_OUTPUT", "nav_roll": -0.00013217583182267845, "nav_pitch": -2.4935998226283118e-05, "nav_bearing": -42, "target_bearing": 0, "wp_dist": 0, "alt_error": 0.0, "aspd_error": 0.0, "xtrack_error": 0.0}}
{"timestamp": 1772983885.174295, "type": "MISSION_CURRENT", "data": {"mavpackettype": "MISSION_CURRENT", "seq": 0, "total": 1, "mission_state": 2, "mission_mode": 0}}
{"timestamp": 1772983885.1744435, "type": "SERVO_OUTPUT_RAW", "data": {"mavpackettype": "SERVO_OUTPUT_RAW", "time_usec": 882542177, "port": 0, "servo1_raw": 1000, "servo2_raw": 1000, "servo3_raw": 1000, "servo4_raw": 1000, "servo5_raw": 0, "servo6_raw": 0, "servo7_raw": 0, "servo8_raw": 0, "servo9_raw": 0, "servo10_raw": 0, "servo11_raw": 0, "servo12_raw": 0, "servo13_raw": 0, "servo14_raw": 0, "servo15_raw": 0, "servo16_raw": 0}}
{"timestamp": 1772983885.174493, "type": "RC_CHANNELS", "data": {"mavpackettype": "RC_CHANNELS", "time_boot_ms": 460444042, "chancount": 8, "chan1_raw": 1500, "chan2_raw": 1500, "chan3_raw": 1000, "chan4_raw": 1500, "chan5_raw": 1800, "chan6_raw": 1000, "chan7_raw": 1000, "chan8_raw": 1800, "chan9_raw": 0, "chan10_raw": 0, "chan11_raw": 0, "chan12_raw": 0, "chan13_raw": 0, "chan14_raw": 0, "chan15_raw": 0, "chan16_raw": 0, "chan17_raw": 0, "chan18_raw": 0, "rssi": 255}}
{"timestamp": 1772983885.1745667, "type": "RAW_IMU", "data": {"mavpackettype": "RAW_IMU", "time_usec": 460444042849, "xacc": 0, "yacc": 0, "zacc": -1001, "xgyro": 3, "ygyro": 3, "zgyro": 3, "xmag": 134, "ymag": 196, "zmag": -528, "id": 0, "temperature": 4500}}
{"timestamp": 1772983885.1746128, "type": "SCALED_IMU2", "data": {"mavpackettype": "SCALED_IMU2", "time_boot_ms": 460444042, "xacc": 0, "yacc": 0, "zacc": -1001, "xgyro": 3, "ygyro": 3, "zgyro": 3, "xmag": 134, "ymag": 196, "zmag": -528, "temperature": 4500}}
{"timestamp": 1772983885.17467, "type": "SCALED_IMU3", "data": {"mavpackettype": "SCALED_IMU3", "time_boot_ms": 460444042, "xacc": 0, "yacc": 0, "zacc": 0, "xgyro": 0, "ygyro": 0, "zgyro": 0, "xmag": 134, "ymag": 196, "zmag": -528, "temperature": 0}}
{"timestamp": 1772983885.1747265, "type": "SCALED_PRESSURE", "data": {"mavpackettype": "SCALED_PRESSURE", "time_boot_ms": 460444042, "press_abs": 945.0282592773438, "press_diff": 0.0, "temperature": 3120, "temperature_press_diff": 0}}
{"timestamp": 1772983885.174774, "type": "SCALED_PRESSURE2", "data": {"mavpackettype": "SCALED_PRESSURE2", "time_boot_ms": 460444042, "press_abs": 945.0452270507812, "press_diff": 0.0, "temperature": 3120, "temperature_press_diff": 0}}
{"timestamp": 1772983885.1748517, "type": "GPS_RAW_INT", "data": {"mavpackettype": "GPS_RAW_INT", "time_usec": 460443963000, "fix_type": 6, "lat": -353632622, "lon": 1491652379, "alt": 584090, "eph": 121, "epv": 200, "vel": 0, "cog": 22939, "satellites_visible": 10, "alt_ellipsoid": 584090, "h_acc": 300, "v_acc": 300, "vel_acc": 0, "hdg_acc": 0, "yaw": 0}}
{"timestamp": 1772983885.1749663, "type": "SYSTEM_TIME", "data": {"mavpackettype": "SYSTEM_TIME", "time_unix_usec": 1772843013879786, "time_boot_ms": 460444042}}
{"timestamp": 1772983885.1750708, "type": "SIMSTATE", "data": {"mavpackettype": "SIMSTATE", "roll": 0.0, "pitch": 0.0, "yaw": -0.747543454170227, "xacc": -1.2433897855735815e-21, "yacc": 4.2614244895457925e-21, "zacc": -9.806650161743164, "xgyro": 8.407790785948902e-43, "ygyro": 8.407790785948902e-43, "zgyro": 8.940695806813892e-06, "lat": -353632622, "lng": 1491652379}}
{"timestamp": 1772983885.1752234, "type": "WIND", "data": {"mavpackettype": "WIND", "direction": -180.0, "speed": 0.0, "speed_z": 0.0}}
{"timestamp": 1772983885.1774008, "type": "TERRAIN_REPORT", "data": {"mavpackettype": "TERRAIN_REPORT", "lat": -353632622, "lon": 1491652381, "spacing": 100, "terrain_height": 584.0800170898438, "current_height": 0.0, "pending": 0, "loaded": 616}}
{"timestamp": 1772983885.1774454, "type": "EKF_STATUS_REPORT", "data": {"mavpackettype": "EKF_STATUS_REPORT", "flags": 831, "velocity_variance": 0.008774904534220695, "pos_horiz_variance": 0.005162345711141825, "pos_vert_variance": 5.533163493964821e-05, "compass_variance": 0.014066820032894611, "terrain_alt_variance": 0.0, "airspeed_variance": 0.0}}
{"timestamp": 1772983885.177474, "type": "LOCAL_POSITION_NED", "data": {"mavpackettype": "LOCAL_POSITION_NED", "time_boot_ms": 460444042, "x": -0.012225247919559479, "y": 0.06442522257566452, "z": 0.0068573057651519775, "vx": -0.0013641399564221501, "vy": 0.023683568462729454, "vz": 0.0003343775460962206}}
{"timestamp": 1772983885.1775012, "type": "VIBRATION", "data": {"mavpackettype": "VIBRATION", "time_usec": 460444042849, "vibration_x": 0.002617326332256198, "vibration_y": 0.0028215600177645683, "vibration_z": 0.0029320777393877506, "clipping_0": 0, "clipping_1": 0, "clipping_2": 0}}
{"timestamp": 1772983885.17755, "type": "BATTERY_STATUS", "data": {"mavpackettype": "BATTERY_STATUS", "id": 0, "battery_function": 0, "type": 0, "temperature": 32767, "voltages": [12600, 65535, 65535, 65535, 65535, 65535, 65535, 65535, 65535, 65535], "current_battery": 0, "current_consumed": 1600, "energy_consumed": 726, "battery_remaining": 51, "time_remaining": 0, "charge_state": 1, "voltages_ext": [0, 0, 0, 0], "mode": 0, "fault_bitmask": 0}}
{"timestamp": 1772983885.1775877, "type": "ESC_TELEMETRY_1_TO_4", "data": {"mavpackettype": "ESC_TELEMETRY_1_TO_4", "temperature": [32, 32, 32, 32], "voltage": [1679, 1679, 1679, 1679], "current": [80, 80, 80, 80], "totalcurrent": [1, 1, 1, 1], "rpm": [0, 0, 0, 0], "count": [19056, 19056, 19056, 19056]}}
{"timestamp": 1772983885.2218916, "type": "AHRS", "data": {"mavpackettype": "AHRS", "omegaIx": -0.003186309477314353, "omegaIy": -0.003199647879227996, "omegaIz": -0.0026757267769426107, "accel_weight": 0.0, "renorm_val": 0.0, "error_rp": 0.0023392585571855307, "error_yaw": 0.0014538599643856287}}
{"timestamp": 1772983885.2227755, "type": "AHRS2", "data": {"mavpackettype": "AHRS2", "roll": 0.0017824769020080566, "pitch": 0.001579559058882296, "yaw": -0.7511913180351257, "altitude": 584.0800170898438, "lat": -353632622, "lng": 1491652379}}
{"timestamp": 1772983885.2228897, "type": "ATTITUDE", "data": {"mavpackettype": "ATTITUDE", "time_boot_ms": 460444292, "roll": 0.004707701038569212, "pitch": 0.0014621308073401451, "yaw": -0.7346900701522827, "rollspeed": 0.000327930087223649, "pitchspeed": 0.0004079793579876423, "yawspeed": 0.0008681453764438629}}
{"timestamp": 1772983885.2230682, "type": "GLOBAL_POSITION_INT", "data": {"mavpackettype": "GLOBAL_POSITION_INT", "time_boot_ms": 460444292, "lat": -353632622, "lon": 1491652381, "alt": 584080, "relative_alt": 3, "vx": 0, "vy": 2, "vz": 0, "hdg": 31791}}
{"timestamp": 1772983885.2233698, "type": "VFR_HUD", "data": {"mavpackettype": "VFR_HUD", "airspeed": 0.023716891184449196, "groundspeed": 0.023714926093816757, "heading": 317, "throttle": 0, "alt": 584.0800170898438, "climb": -0.00030524423345923424}}
{"timestamp": 1772983885.2236402, "type": "SYS_STATUS", "data": {"mavpackettype": "SYS_STATUS", "onboard_control_sensors_present": 1399979055, "onboard_control_sensors_enabled": 1382128687, "onboard_control_sensors_health": 1467063343, "load": 0, "voltage_battery": 12600, "current_battery": 0, "battery_remaining": 51, "drop_rate_comm": 0, "errors_comm": 0, "errors_count1": 0, "errors_count2": 0, "errors_count3": 0, "errors_count4": 0}}
{"timestamp": 1772983885.223869, "type": "POWER_STATUS", "data": {"mavpackettype": "POWER_STATUS", "Vcc": 5000, "Vservo": 0, "flags": 0}}
{"timestamp": 1772983885.2242572, "type": "MEMINFO", "data": {"mavpackettype": "MEMINFO", "brkval": 0, "freemem": 65535, "freemem32": 524288}}
{"timestamp": 1772983885.2245862, "type": "NAV_CONTROLLER_OUTPUT", "data": {"mavpackettype": "NAV_CONTROLLER_OUTPUT", "nav_roll": -0.00013217577361501753, "nav_pitch": -2.493599458830431e-05, "nav_bearing": -42, "target_bearing": 0, "wp_dist": 0, "alt_error": 0.0, "aspd_error": 0.0, "xtrack_error": 0.0}}
{"timestamp": 1772983885.224824, "type": "MISSION_CURRENT", "data": {"mavpackettype": "MISSION_CURRENT", "seq": 0, "total": 1, "mission_state": 2, "mission_mode": 0}}
{"timestamp": 1772983885.2250345, "type": "SERVO_OUTPUT_RAW", "data": {"mavpackettype": "SERVO_OUTPUT_RAW", "time_usec": 882792077, "port": 0, "servo1_raw": 1000, "servo2_raw": 1000, "servo3_raw": 1000, "servo4_raw": 1000, "servo5_raw": 0, "servo6_raw": 0, "servo7_raw": 0, "servo8_raw": 0, "servo9_raw": 0, "servo10_raw": 0, "servo11_raw": 0, "servo12_raw": 0, "servo13_raw": 0, "servo14_raw": 0, "servo15_raw": 0, "servo16_raw": 0}}
{"timestamp": 1772983885.2251778, "type": "RC_CHANNELS", "data": {"mavpackettype": "RC_CHANNELS", "time_boot_ms": 460444292, "chancount": 8, "chan1_raw": 1500, "chan2_raw": 1500, "chan3_raw": 1000, "chan4_raw": 1500, "chan5_raw": 1800, "chan6_raw": 1000, "chan7_raw": 1000, "chan8_raw": 1800, "chan9_raw": 0, "chan10_raw": 0, "chan11_raw": 0, "chan12_raw": 0, "chan13_raw": 0, "chan14_raw": 0, "chan15_raw": 0, "chan16_raw": 0, "chan17_raw": 0, "chan18_raw": 0, "rssi": 255}}
{"timestamp": 1772983885.2255607, "type": "RAW_IMU", "data": {"mavpackettype": "RAW_IMU", "time_usec": 460444292749, "xacc": 0, "yacc": 0, "zacc": -1001, "xgyro": 3, "ygyro": 3, "zgyro": 3, "xmag": 134, "ymag": 196, "zmag": -528, "id": 0, "temperature": 4500}}
{"timestamp": 1772983885.225606, "type": "SCALED_IMU2", "data": {"mavpackettype": "SCALED_IMU2", "time_boot_ms": 460444292, "xacc": 0, "yacc": 0, "zacc": -1000, "xgyro": 3, "ygyro": 3, "zgyro": 3, "xmag": 134, "ymag": 196, "zmag": -528, "temperature": 4500}}
{"timestamp": 1772983885.2256339, "type": "SCALED_IMU3", "data": {"mavpackettype": "SCALED_IMU3", "time_boot_ms": 460444292, "xacc": 0, "yacc": 0, "zacc": 0, "xgyro": 0, "ygyro": 0, "zgyro": 0, "xmag": 134, "ymag": 196, "zmag": -528, "temperature": 0}}
{"timestamp": 1772983885.225659, "type": "SCALED_PRESSURE", "data": {"mavpackettype": "SCALED_PRESSURE", "time_boot_ms": 460444292, "press_abs": 945.0282592773438, "press_diff": 0.0, "temperature": 3120, "temperature_press_diff": 0}}
{"timestamp": 1772983885.2257552, "type": "SCALED_PRESSURE2", "data": {"mavpackettype": "SCALED_PRESSURE2", "time_boot_ms": 460444292, "press_abs": 945.0452270507812, "press_diff": 0.0, "temperature": 3120, "temperature_press_diff": 0}}
{"timestamp": 1772983885.225861, "type": "GPS_RAW_INT", "data": {"mavpackettype": "GPS_RAW_INT", "time_usec": 460444163000, "fix_type": 6, "lat": -353632622, "lon": 1491652379, "alt": 584090, "eph": 121, "epv": 200, "vel": 0, "cog": 22939, "satellites_visible": 10, "alt_ellipsoid": 584090, "h_acc": 300, "v_acc": 300, "vel_acc": 0, "hdg_acc": 0, "yaw": 0}}
{"timestamp": 1772983885.2260787, "type": "SYSTEM_TIME", "data": {"mavpackettype": "SYSTEM_TIME", "time_unix_usec": 1772843014129686, "time_boot_ms": 460444292}}
{"timestamp": 1772983885.2276473, "type": "SIMSTATE", "data": {"mavpackettype": "SIMSTATE", "roll": 0.0, "pitch": 0.0, "yaw": -0.747543454170227, "xacc": -1.2433897855735815e-21, "yacc": 4.2614244895457925e-21, "zacc": -9.806650161743164, "xgyro": 8.407790785948902e-43, "ygyro": 8.407790785948902e-43, "zgyro": 8.940695806813892e-06, "lat": -353632622, "lng": 1491652379}}
{"timestamp": 1772983885.2276902, "type": "WIND", "data": {"mavpackettype": "WIND", "direction": -180.0, "speed": 0.0, "speed_z": 0.0}}
{"timestamp": 1772983885.2277155, "type": "TERRAIN_REPORT", "data": {"mavpackettype": "TERRAIN_REPORT", "lat": -353632622, "lon": 1491652381, "spacing": 100, "terrain_height": 584.0800170898438, "current_height": 0.0, "pending": 0, "loaded": 616}}
{"timestamp": 1772983885.2277417, "type": "EKF_STATUS_REPORT", "data": {"mavpackettype": "EKF_STATUS_REPORT", "flags": 831, "velocity_variance": 0.008765163831412792, "pos_horiz_variance": 0.005165372975170612, "pos_vert_variance": 5.4727421229472384e-05, "compass_variance": 0.014015484601259232, "terrain_alt_variance": 0.0, "airspeed_variance": 0.0}}
{"timestamp": 1772983885.2277737, "type": "LOCAL_POSITION_NED", "data": {"mavpackettype": "LOCAL_POSITION_NED", "time_boot_ms": 460444292, "x": -0.012228515930473804, "y": 0.06439808756113052, "z": 0.006857198663055897, "vx": -0.0013632465852424502, "vy": 0.02367570996284485, "vz": 0.00030524423345923424}}
{"timestamp": 1772983885.2278068, "type": "VIBRATION", "data": {"mavpackettype": "VIBRATION", "time_usec": 460444292749, "vibration_x": 0.0030936163384467363, "vibration_y": 0.002482477342709899, "vibration_z": 0.0029731779359281063, "clipping_0": 0, "clipping_1": 0, "clipping_2": 0}}
{"timestamp": 1772983885.2278576, "type": "BATTERY_STATUS", "data": {"mavpackettype": "BATTERY_STATUS", "id": 0, "battery_function": 0, "type": 0, "temperature": 32767, "voltages": [12600, 65535, 65535, 65535, 65535, 65535, 65535, 65535, 65535, 65535], "current_battery": 0, "current_consumed": 1600, "energy_consumed": 726, "battery_remaining": 51, "time_remaining": 0, "charge_state": 1, "voltages_ext": [0, 0, 0, 0], "mode": 0, "fault_bitmask": 0}}
{"timestamp": 1772983885.2278917, "type": "ESC_TELEMETRY_1_TO_4", "data": {"mavpackettype": "ESC_TELEMETRY_1_TO_4", "temperature": [32, 32, 32, 32], "voltage": [1679, 1679, 1679, 1679], "current": [80, 80, 80, 80], "totalcurrent": [1, 1, 1, 1], "rpm": [0, 0, 0, 0], "count": [19156, 19156, 19156, 19156]}}
{"timestamp": 1772983885.2598715, "type": "FLIGHT_INFORMATION", "data": {"mavpackettype": "FLIGHT_INFORMATION", "time_boot_ms": 460444480, "arming_time_utc": 0, "takeoff_time_utc": 0, "flight_uuid": 0}}
{"timestamp": 1772983885.2710533, "type": "AHRS", "data": {"mavpackettype": "AHRS", "omegaIx": -0.003191925585269928, "omegaIy": -0.003205300308763981, "omegaIz": -0.0026809852570295334, "accel_weight": 0.0, "renorm_val": 0.0, "error_rp": 0.002347500529140234, "error_yaw": 0.001466688816435635}}
{"timestamp": 1772983885.2719312, "type": "AHRS2", "data": {"mavpackettype": "AHRS2", "roll": 0.0017915319185703993, "pitch": 0.0015840574633330107, "yaw": -0.751192033290863, "altitude": 584.0800170898438, "lat": -353632622, "lng": 1491652379}}
{"timestamp": 1772983885.2719805, "type": "ATTITUDE", "data": {"mavpackettype": "ATTITUDE", "time_boot_ms": 460444542, "roll": 0.004713564645498991, "pitch": 0.001462919288314879, "yaw": -0.7347041964530945, "rollspeed": 0.00037668924778699875, "pitchspeed": 0.0002729461994022131, "yawspeed": 0.0007937096524983644}}
{"timestamp": 1772983885.2720149, "type": "GLOBAL_POSITION_INT", "data": {"mavpackettype": "GLOBAL_POSITION_INT", "time_boot_ms": 460444542, "lat": -353632622, "lon": 1491652381, "alt": 584080, "relative_alt": 3, "vx": 0, "vy": 2, "vz": 0, "hdg": 31791}}
{"timestamp": 1772983885.2720468, "type": "VFR_HUD", "data": {"mavpackettype": "VFR_HUD", "airspeed": 0.02390514314174652, "groundspeed": 0.023903707042336464, "heading": 317, "throttle": 0, "alt": 584.0800170898438, "climb": -0.0002620871237013489}}
{"timestamp": 1772983885.2725716, "type": "SYS_STATUS", "data": {"mavpackettype": "SYS_STATUS", "onboard_control_sensors_present": 1399979055, "onboard_control_sensors_enabled": 1382128687, "onboard_control_sensors_health": 1467063343, "load": 0, "voltage_battery": 12600, "current_battery": 0, "battery_remaining": 51, "drop_rate_comm": 0, "errors_comm": 0, "errors_count1": 0, "errors_count2": 0, "errors_count3": 0, "errors_count4": 0}}
{"timestamp": 1772983885.2735524, "type": "POWER_STATUS", "data": {"mavpackettype": "POWER_STATUS", "Vcc": 5000, "Vservo": 0, "flags": 0}}
{"timestamp": 1772983885.273937, "type": "MEMINFO", "data": {"mavpackettype": "MEMINFO", "brkval": 0, "freemem": 65535, "freemem32": 524288}}
{"timestamp": 1772983885.2742052, "type": "NAV_CONTROLLER_OUTPUT", "data": {"mavpackettype": "NAV_CONTROLLER_OUTPUT", "nav_roll": -0.00013217578816693276, "nav_pitch": -2.493602914910298e-05, "nav_bearing": -42, "target_bearing": 0, "wp_dist": 0, "alt_error": 0.0, "aspd_error": 0.0, "xtrack_error": 0.0}}
{"timestamp": 1772983885.2746093, "type": "MISSION_CURRENT", "data": {"mavpackettype": "MISSION_CURRENT", "seq": 0, "total": 1, "mission_state": 2, "mission_mode": 0}}
{"timestamp": 1772983885.2747967, "type": "SERVO_OUTPUT_RAW", "data": {"mavpackettype": "SERVO_OUTPUT_RAW", "time_usec": 883041977, "port": 0, "servo1_raw": 1000, "servo2_raw": 1000, "servo3_raw": 1000, "servo4_raw": 1000, "servo5_raw": 0, "servo6_raw": 0, "servo7_raw": 0, "servo8_raw": 0, "servo9_raw": 0, "servo10_raw": 0, "servo11_raw": 0, "servo12_raw": 0, "servo13_raw": 0, "servo14_raw": 0, "servo15_raw": 0, "servo16_raw": 0}}
{"timestamp": 1772983885.2749202, "type": "RC_CHANNELS", "data": {"mavpackettype": "RC_CHANNELS", "time_boot_ms": 460444542, "chancount": 8, "chan1_raw": 1500, "chan2_raw": 1500, "chan3_raw": 1000, "chan4_raw": 1500, "chan5_raw": 1800, "chan6_raw": 1000, "chan7_raw": 1000, "chan8_raw": 1800, "chan9_raw": 0, "chan10_raw": 0, "chan11_raw": 0, "chan12_raw": 0, "chan13_raw": 0, "chan14_raw": 0, "chan15_raw": 0, "chan16_raw": 0, "chan17_raw": 0, "chan18_raw": 0, "rssi": 255}}
{"timestamp": 1772983885.276614, "type": "RAW_IMU", "data": {"mavpackettype": "RAW_IMU", "time_usec": 460444542649, "xacc": 0, "yacc": 0, "zacc": -1001, "xgyro": 3, "ygyro": 3, "zgyro": 3, "xmag": 134, "ymag": 196, "zmag": -528, "id": 0, "temperature": 4500}}
{"timestamp": 1772983885.276653, "type": "SCALED_IMU2", "data": {"mavpackettype": "SCALED_IMU2", "time_boot_ms": 460444542, "xacc": 0, "yacc": 0, "zacc": -1001, "xgyro": 3, "ygyro": 3, "zgyro": 3, "xmag": 134, "ymag": 196, "zmag": -528, "temperature": 4500}}
{"timestamp": 1772983885.2766817, "type": "SCALED_IMU3", "data": {"mavpackettype": "SCALED_IMU3", "time_boot_ms": 460444542, "xacc": 0, "yacc": 0, "zacc": 0, "xgyro": 0, "ygyro": 0, "zgyro": 0, "xmag": 134, "ymag": 196, "zmag": -528, "temperature": 0}}
{"timestamp": 1772983885.2767076, "type": "SCALED_PRESSURE", "data": {"mavpackettype": "SCALED_PRESSURE", "time_boot_ms": 460444542, "press_abs": 945.0282592773438, "press_diff": 0.0, "temperature": 3120, "temperature_press_diff": 0}}
{"timestamp": 1772983885.2767317, "type": "SCALED_PRESSURE2", "data": {"mavpackettype": "SCALED_PRESSURE2", "time_boot_ms": 460444542, "press_abs": 945.0169067382812, "press_diff": 0.0, "temperature": 3120, "temperature_press_diff": 0}}
{"timestamp": 1772983885.2767599, "type": "GPS_RAW_INT", "data": {"mavpackettype": "GPS_RAW_INT", "time_usec": 460444363000, "fix_type": 6, "lat": -353632622, "lon": 1491652379, "alt": 584090, "eph": 121, "epv": 200, "vel": 0, "cog": 22939, "satellites_visible": 10, "alt_ellipsoid": 584090, "h_acc": 300, "v_acc": 300, "vel_acc": 0, "hdg_acc": 0, "yaw": 0}}
{"timestamp": 1772983885.276788, "type": "SYSTEM_TIME", "data": {"mavpackettype": "SYSTEM_TIME", "time_unix_usec": 1772843014379586, "time_boot_ms": 460444542}}
{"timestamp": 1772983885.27682, "type": "SIMSTATE", "data": {"mavpackettype": "SIMSTATE", "roll": 0.0, "pitch": 0.0, "yaw": -0.747543454170227, "xacc": -1.2433897855735815e-21, "yacc": 4.2614244895457925e-21, "zacc": -9.806650161743164, "xgyro": 8.407790785948902e-43, "ygyro": 8.407790785948902e-43, "zgyro": 8.940695806813892e-06, "lat": -353632622, "lng": 1491652379}}
{"timestamp": 1772983885.2768512, "type": "WIND", "data": {"mavpackettype": "WIND", "direction": -180.0, "speed": 0.0, "speed_z": 0.0}}
{"timestamp": 1772983885.2768729, "type": "TERRAIN_REPORT", "data": {"mavpackettype": "TERRAIN_REPORT", "lat": -353632622, "lon": 1491652381, "spacing": 100, "terrain_height": 584.0800170898438, "current_height": 0.0, "pending": 0, "loaded": 616}}
{"timestamp": 1772983885.2768974, "type": "EKF_STATUS_REPORT", "data": {"mavpackettype": "EKF_STATUS_REPORT", "flags": 831, "velocity_variance": 0.008773304522037506, "pos_horiz_variance": 0.005170028191059828, "pos_vert_variance": 5.483704080688767e-05, "compass_variance": 0.014009413309395313, "terrain_alt_variance": 0.0, "airspeed_variance": 0.0}}
{"timestamp": 1772983885.2769654, "type": "LOCAL_POSITION_NED", "data": {"mavpackettype": "LOCAL_POSITION_NED", "time_boot_ms": 460444542, "x": -0.012241825461387634, "y": 0.06459765136241913, "z": 0.0068565853871405125, "vx": -0.0013723241863772273, "vy": 0.02386428229510784, "vz": 0.0002620871237013489}}
{"timestamp": 1772983885.2773602, "type": "VIBRATION", "data": {"mavpackettype": "VIBRATION", "time_usec": 460444542649, "vibration_x": 0.0031725314911454916, "vibration_y": 0.0030833925120532513, "vibration_z": 0.0026936351787298918, "clipping_0": 0, "clipping_1": 0, "clipping_2": 0}}
{"timestamp": 1772983885.2775848, "type": "BATTERY_STATUS", "data": {"mavpackettype": "BATTERY_STATUS", "id": 0, "battery_function": 0, "type": 0, "temperature": 32767, "voltages": [12600, 65535, 65535, 65535, 65535, 65535, 65535, 65535, 65535, 65535], "current_battery": 0, "current_consumed": 1600, "energy_consumed": 726, "battery_remaining": 51, "time_remaining": 0, "charge_state": 1, "voltages_ext": [0, 0, 0, 0], "mode": 0, "fault_bitmask": 0}}
{"timestamp": 1772983885.2777128, "type": "ESC_TELEMETRY_1_TO_4", "data": {"mavpackettype": "ESC_TELEMETRY_1_TO_4", "temperature": [32, 32, 32, 32], "voltage": [1679, 1679, 1679, 1679], "current": [80, 80, 80, 80], "totalcurrent": [1, 1, 1, 1], "rpm": [0, 0, 0, 0], "count": [19256, 19256, 19256, 19256]}}
{"timestamp": 1772983885.3206265, "type": "AHRS", "data": {"mavpackettype": "AHRS", "omegaIx": -0.0031924096401780844, "omegaIy": -0.003205816261470318, "omegaIz": -0.0026809764094650745, "accel_weight": 0.0, "renorm_val": 0.0, "error_rp": 0.0023653076495975256, "error_yaw": 0.0014877085341140628}}
{"timestamp": 1772983885.3211868, "type": "AHRS2", "data": {"mavpackettype": "AHRS2", "roll": 0.0017992034554481506, "pitch": 0.0015903259627521038, "yaw": -0.7511868476867676, "altitude": 584.0800170898438, "lat": -353632622, "lng": 1491652379}}
{"timestamp": 1772983885.3217175, "type": "ATTITUDE", "data": {"mavpackettype": "ATTITUDE", "time_boot_ms": 460444792, "roll": 0.004721714183688164, "pitch": 0.0014671774115413427, "yaw": -0.734700620174408, "rollspeed": 0.0003205547109246254, "pitchspeed": 0.0002460181713104248, "yawspeed": 0.0008496553637087345}}
{"timestamp": 1772983885.323486, "type": "GLOBAL_POSITION_INT", "data": {"mavpackettype": "GLOBAL_POSITION_INT", "time_boot_ms": 460444792, "lat": -353632622, "lon": 1491652381, "alt": 584080, "relative_alt": 3, "vx": 0, "vy": 2, "vz": 0, "hdg": 31791}}
{"timestamp": 1772983885.323527, "type": "VFR_HUD", "data": {"mavpackettype": "VFR_HUD", "airspeed": 0.02404058538377285, "groundspeed": 0.024039335548877716, "heading": 317, "throttle": 0, "alt": 584.0800170898438, "climb": -0.00024494793615303934}}
{"timestamp": 1772983885.3235958, "type": "SYS_STATUS", "data": {"mavpackettype": "SYS_STATUS", "onboard_control_sensors_present": 1399979055, "onboard_control_sensors_enabled": 1382128687, "onboard_control_sensors_health": 1467063343, "load": 0, "voltage_battery": 12600, "current_battery": 0, "battery_remaining": 51, "drop_rate_comm": 0, "errors_comm": 0, "errors_count1": 0, "errors_count2": 0, "errors_count3": 0, "errors_count4": 0}}
{"timestamp": 1772983885.3237042, "type": "POWER_STATUS", "data": {"mavpackettype": "POWER_STATUS", "Vcc": 5000, "Vservo": 0, "flags": 0}}
{"timestamp": 1772983885.3239212, "type": "MEMINFO", "data": {"mavpackettype": "MEMINFO", "brkval": 0, "freemem": 65535, "freemem32": 524288}}
{"timestamp": 1772983885.3240445, "type": "NAV_CONTROLLER_OUTPUT", "data": {"mavpackettype": "NAV_CONTROLLER_OUTPUT", "nav_roll": -0.0001321757008554414, "nav_pitch": -2.4936001864261925e-05, "nav_bearing": -42, "target_bearing": 0, "wp_dist": 0, "alt_error": 0.0, "aspd_error": 0.0, "xtrack_error": 0.0}}
{"timestamp": 1772983885.324352, "type": "MISSION_CURRENT", "data": {"mavpackettype": "MISSION_CURRENT", "seq": 0, "total": 1, "mission_state": 2, "mission_mode": 0}}
{"timestamp": 1772983885.3246553, "type": "SERVO_OUTPUT_RAW", "data": {"mavpackettype": "SERVO_OUTPUT_RAW", "time_usec": 883291877, "port": 0, "servo1_raw": 1000, "servo2_raw": 1000, "servo3_raw": 1000, "servo4_raw": 1000, "servo5_raw": 0, "servo6_raw": 0, "servo7_raw": 0, "servo8_raw": 0, "servo9_raw": 0, "servo10_raw": 0, "servo11_raw": 0, "servo12_raw": 0, "servo13_raw": 0, "servo14_raw": 0, "servo15_raw": 0, "servo16_raw": 0}}
{"timestamp": 1772983885.3248103, "type": "RC_CHANNELS", "data": {"mavpackettype": "RC_CHANNELS", "time_boot_ms": 460444792, "chancount": 8, "chan1_raw": 1500, "chan2_raw": 1500, "chan3_raw": 1000, "chan4_raw": 1500, "chan5_raw": 1800, "chan6_raw": 1000, "chan7_raw": 1000, "chan8_raw": 1800, "chan9_raw": 0, "chan10_raw": 0, "chan11_raw": 0, "chan12_raw": 0, "chan13_raw": 0, "chan14_raw": 0, "chan15_raw": 0, "chan16_raw": 0, "chan17_raw": 0, "chan18_raw": 0, "rssi": 255}}
{"timestamp": 1772983885.325054, "type": "RAW_IMU", "data": {"mavpackettype": "RAW_IMU", "time_usec": 460444792549, "xacc": 0, "yacc": 0, "zacc": -1001, "xgyro": 3, "ygyro": 3, "zgyro": 3, "xmag": 134, "ymag": 196, "zmag": -528, "id": 0, "temperature": 4500}}
{"timestamp": 1772983885.3251832, "type": "SCALED_IMU2", "data": {"mavpackettype": "SCALED_IMU2", "time_boot_ms": 460444792, "xacc": 0, "yacc": 0, "zacc": -1001, "xgyro": 3, "ygyro": 3, "zgyro": 3, "xmag": 134, "ymag": 196, "zmag": -528, "temperature": 4500}}
{"timestamp": 1772983885.325457, "type": "SCALED_IMU3", "data": {"mavpackettype": "SCALED_IMU3", "time_boot_ms": 460444792, "xacc": 0, "yacc": 0, "zacc": 0, "xgyro": 0, "ygyro": 0, "zgyro": 0, "xmag": 134, "ymag": 196, "zmag": -528, "temperature": 0}}
{"timestamp": 1772983885.3255816, "type": "SCALED_PRESSURE", "data": {"mavpackettype": "SCALED_PRESSURE", "time_boot_ms": 460444792, "press_abs": 945.0282592773438, "press_diff": 0.0, "temperature": 3120, "temperature_press_diff": 0}}
{"timestamp": 1772983885.3257742, "type": "SCALED_PRESSURE2", "data": {"mavpackettype": "SCALED_PRESSURE2", "time_boot_ms": 460444792, "press_abs": 945.0505981445312, "press_diff": 0.0, "temperature": 3120, "temperature_press_diff": 0}}
{"timestamp": 1772983885.32586, "type": "GPS_RAW_INT", "data": {"mavpackettype": "GPS_RAW_INT", "time_usec": 460444763000, "fix_type": 6, "lat": -353632622, "lon": 1491652379, "alt": 584090, "eph": 121, "epv": 200, "vel": 0, "cog": 22939, "satellites_visible": 10, "alt_ellipsoid": 584090, "h_acc": 300, "v_acc": 300, "vel_acc": 0, "hdg_acc": 0, "yaw": 0}}
{"timestamp": 1772983885.326197, "type": "SYSTEM_TIME", "data": {"mavpackettype": "SYSTEM_TIME", "time_unix_usec": 1772843014629486, "time_boot_ms": 460444792}}
{"timestamp": 1772983885.326382, "type": "SIMSTATE", "data": {"mavpackettype": "SIMSTATE", "roll": 0.0, "pitch": 0.0, "yaw": -0.747543454170227, "xacc": -1.2433897855735815e-21, "yacc": 4.2614244895457925e-21, "zacc": -9.806650161743164, "xgyro": 8.407790785948902e-43, "ygyro": 8.407790785948902e-43, "zgyro": 8.940695806813892e-06, "lat": -353632622, "lng": 1491652379}}
{"timestamp": 1772983885.3265145, "type": "WIND", "data": {"mavpackettype": "WIND", "direction": -180.0, "speed": 0.0, "speed_z": 0.0}}
{"timestamp": 1772983885.32663, "type": "TERRAIN_REPORT", "data": {"mavpackettype": "TERRAIN_REPORT", "lat": -353632622, "lon": 1491652381, "spacing": 100, "terrain_height": 584.0800170898438, "current_height": 0.0, "pending": 0, "loaded": 616}}
{"timestamp": 1772983885.3267205, "type": "EKF_STATUS_REPORT", "data": {"mavpackettype": "EKF_STATUS_REPORT", "flags": 831, "velocity_variance": 0.008803575299680233, "pos_horiz_variance": 0.0051736957393586636, "pos_vert_variance": 5.590567525359802e-05, "compass_variance": 0.014064599759876728, "terrain_alt_variance": 0.0, "airspeed_variance": 0.0}}
{"timestamp": 1772983885.326855, "type": "LOCAL_POSITION_NED", "data": {"mavpackettype": "LOCAL_POSITION_NED", "time_boot_ms": 460444792, "x": -0.012242300435900688, "y": 0.06477168947458267, "z": 0.006851945538073778, "vx": -0.0013181616086512804, "vy": 0.0240031685680151, "vz": 0.00024494793615303934}}
{"timestamp": 1772983885.327255, "type": "VIBRATION", "data": {"mavpackettype": "VIBRATION", "time_usec": 460444792549, "vibration_x": 0.0027071749791502953, "vibration_y": 0.002886113477870822, "vibration_z": 0.002816351130604744, "clipping_0": 0, "clipping_1": 0, "clipping_2": 0}}
{"timestamp": 1772983885.3273234, "type": "BATTERY_STATUS", "data": {"mavpackettype": "BATTERY_STATUS", "id": 0, "battery_function": 0, "type": 0, "temperature": 32767, "voltages": [12600, 65535, 65535, 65535, 65535, 65535, 65535, 65535, 65535, 65535], "current_battery": 0, "current_consumed": 1600, "energy_consumed": 726, "battery_remaining": 51, "time_remaining": 0, "charge_state": 1, "voltages_ext": [0, 0, 0, 0], "mode": 0, "fault_bitmask": 0}}
{"timestamp": 1772983885.3273761, "type": "ESC_TELEMETRY_1_TO_4", "data": {"mavpackettype": "ESC_TELEMETRY_1_TO_4", "temperature": [32, 32, 32, 32], "voltage": [1679, 1679, 1679, 1679], "current": [80, 80, 80, 80], "totalcurrent": [1, 1, 1, 1], "rpm": [0, 0, 0, 0], "count": [19356, 19356, 19356, 19356]}}
{"timestamp": 1772983885.3595736, "type": "HEARTBEAT", "data": {"mavpackettype": "HEARTBEAT", "type": 2, "autopilot": 3, "base_mode": 81, "custom_mode": 0, "system_status": 3, "mavlink_version": 3}}
{"timestamp": 1772983885.359943, "type": "FLIGHT_INFORMATION", "data": {"mavpackettype": "FLIGHT_INFORMATION", "time_boot_ms": 460444982, "arming_time_utc": 0, "takeoff_time_utc": 0, "flight_uuid": 0}}
{"timestamp": 1772983885.370403, "type": "AHRS", "data": {"mavpackettype": "AHRS", "omegaIx": -0.0031952376011759043, "omegaIy": -0.003208652837201953, "omegaIz": -0.002683872589841485, "accel_weight": 0.0, "renorm_val": 0.0, "error_rp": 0.002371531445533037, "error_yaw": 0.0015011709183454514}}
{"timestamp": 1772983885.3706293, "type": "AHRS2", "data": {"mavpackettype": "AHRS2", "roll": 0.0018015787936747074, "pitch": 0.0015933895483613014, "yaw": -0.7511783242225647, "altitude": 584.0800170898438, "lat": -353632622, "lng": 1491652379}}
{"timestamp": 1772983885.3710158, "type": "ATTITUDE", "data": {"mavpackettype": "ATTITUDE", "time_boot_ms": 460445042, "roll": 0.0047158184461295605, "pitch": 0.001460618106648326, "yaw": -0.7347060441970825, "rollspeed": 0.0003507325891405344, "pitchspeed": 0.00036942376755177975, "yawspeed": 0.0008685423526912928}}
{"timestamp": 1772983885.371088, "type": "GLOBAL_POSITION_INT", "data": {"mavpackettype": "GLOBAL_POSITION_INT", "time_boot_ms": 460445042, "lat": -353632622, "lon": 1491652381, "alt": 584080, "relative_alt": 3, "vx": 0, "vy": 2, "vz": 0, "hdg": 31791}}
{"timestamp": 1772983885.3711557, "type": "VFR_HUD", "data": {"mavpackettype": "VFR_HUD", "airspeed": 0.023887887597084045, "groundspeed": 0.023887112736701965, "heading": 317, "throttle": 0, "alt": 584.0800170898438, "climb": -0.00019210913160350174}}
{"timestamp": 1772983885.3719327, "type": "SYS_STATUS", "data": {"mavpackettype": "SYS_STATUS", "onboard_control_sensors_present": 1399979055, "onboard_control_sensors_enabled": 1382128687, "onboard_control_sensors_health": 1467063343, "load": 0, "voltage_battery": 12600, "current_battery": 0, "battery_remaining": 51, "drop_rate_comm": 0, "errors_comm": 0, "errors_count1": 0, "errors_count2": 0, "errors_count3": 0, "errors_count4": 0}}
{"timestamp": 1772983885.3724031, "type": "POWER_STATUS", "data": {"mavpackettype": "POWER_STATUS", "Vcc": 5000, "Vservo": 0, "flags": 0}}
{"timestamp": 1772983885.3725588, "type": "MEMINFO", "data": {"mavpackettype": "MEMINFO", "brkval": 0, "freemem": 65535, "freemem32": 524288}}
{"timestamp": 1772983885.3726346, "type": "NAV_CONTROLLER_OUTPUT", "data": {"mavpackettype": "NAV_CONTROLLER_OUTPUT", "nav_roll": -0.00013217567175161093, "nav_pitch": -2.4935981855378486e-05, "nav_bearing": -42, "target_bearing": 0, "wp_dist": 0, "alt_error": 0.0, "aspd_error": 0.0, "xtrack_error": 0.0}}
{"timestamp": 1772983885.3727803, "type": "MISSION_CURRENT", "data": {"mavpackettype": "MISSION_CURRENT", "seq": 0, "total": 1, "mission_state": 2, "mission_mode": 0}}
{"timestamp": 1772983885.37492, "type": "SERVO_OUTPUT_RAW", "data": {"mavpackettype": "SERVO_OUTPUT_RAW", "time_usec": 883541777, "port": 0, "servo1_raw": 1000, "servo2_raw": 1000, "servo3_raw": 1000, "servo4_raw": 1000, "servo5_raw": 0, "servo6_raw": 0, "servo7_raw": 0, "servo8_raw": 0, "servo9_raw": 0, "servo10_raw": 0, "servo11_raw": 0, "servo12_raw": 0, "servo13_raw": 0, "servo14_raw": 0, "servo15_raw": 0, "servo16_raw": 0}}
{"timestamp": 1772983885.374976, "type": "RC_CHANNELS", "data": {"mavpackettype": "RC_CHANNELS", "time_boot_ms": 460445042, "chancount": 8, "chan1_raw": 1500, "chan2_raw": 1500, "chan3_raw": 1000, "chan4_raw": 1500, "chan5_raw": 1800, "chan6_raw": 1000, "chan7_raw": 1000, "chan8_raw": 1800, "chan9_raw": 0, "chan10_raw": 0, "chan11_raw": 0, "chan12_raw": 0, "chan13_raw": 0, "chan14_raw": 0, "chan15_raw": 0, "chan16_raw": 0, "chan17_raw": 0, "chan18_raw": 0, "rssi": 255}}
{"timestamp": 1772983885.3750207, "type": "RAW_IMU", "data": {"mavpackettype": "RAW_IMU", "time_usec": 460445042449, "xacc": 0, "yacc": 0, "zacc": -1001, "xgyro": 3, "ygyro": 3, "zgyro": 3, "xmag": 134, "ymag": 196, "zmag": -528, "id": 0, "temperature": 4500}}
{"timestamp": 1772983885.3750503, "type": "SCALED_IMU2", "data": {"mavpackettype": "SCALED_IMU2", "time_boot_ms": 460445042, "xacc": 0, "yacc": 0, "zacc": -1000, "xgyro": 3, "ygyro": 3, "zgyro": 3, "xmag": 134, "ymag": 196, "zmag": -528, "temperature": 4500}}
{"timestamp": 1772983885.3751202, "type": "SCALED_IMU3", "data": {"mavpackettype": "SCALED_IMU3", "time_boot_ms": 460445042, "xacc": 0, "yacc": 0, "zacc": 0, "xgyro": 0, "ygyro": 0, "zgyro": 0, "xmag": 134, "ymag": 196, "zmag": -528, "temperature": 0}}
{"timestamp": 1772983885.3752313, "type": "SCALED_PRESSURE", "data": {"mavpackettype": "SCALED_PRESSURE", "time_boot_ms": 460445042, "press_abs": 945.0282592773438, "press_diff": 0.0, "temperature": 3120, "temperature_press_diff": 0}}
{"timestamp": 1772983885.3753123, "type": "SCALED_PRESSURE2", "data": {"mavpackettype": "SCALED_PRESSURE2", "time_boot_ms": 460445042, "press_abs": 945.02685546875, "press_diff": 0.0, "temperature": 3120, "temperature_press_diff": 0}}
{"timestamp": 1772983885.3753467, "type": "GPS_RAW_INT", "data": {"mavpackettype": "GPS_RAW_INT", "time_usec": 460444963000, "fix_type": 6, "lat": -353632622, "lon": 1491652379, "alt": 584090, "eph": 121, "epv": 200, "vel": 0, "cog": 22939, "satellites_visible": 10, "alt_ellipsoid": 584090, "h_acc": 300, "v_acc": 300, "vel_acc": 0, "hdg_acc": 0, "yaw": 0}}
{"timestamp": 1772983885.375443, "type": "SYSTEM_TIME", "data": {"mavpackettype": "SYSTEM_TIME", "time_unix_usec": 1772843014879386, "time_boot_ms": 460445042}}
{"timestamp": 1772983885.3754945, "type": "SIMSTATE", "data": {"mavpackettype": "SIMSTATE", "roll": 0.0, "pitch": 0.0, "yaw": -0.747543454170227, "xacc": -1.2433897855735815e-21, "yacc": 4.2614244895457925e-21, "zacc": -9.806650161743164, "xgyro": 8.407790785948902e-43, "ygyro": 8.407790785948902e-43, "zgyro": 8.940695806813892e-06, "lat": -353632622, "lng": 1491652379}}
{"timestamp": 1772983885.3755317, "type": "WIND", "data": {"mavpackettype": "WIND", "direction": -180.0, "speed": 0.0, "speed_z": 0.0}}
{"timestamp": 1772983885.3756008, "type": "TERRAIN_REPORT", "data": {"mavpackettype": "TERRAIN_REPORT", "lat": -353632622, "lon": 1491652381, "spacing": 100, "terrain_height": 584.0800170898438, "current_height": 0.0, "pending": 0, "loaded": 616}}
{"timestamp": 1772983885.3757179, "type": "EKF_STATUS_REPORT", "data": {"mavpackettype": "EKF_STATUS_REPORT", "flags": 831, "velocity_variance": 0.008818558417260647, "pos_horiz_variance": 0.005183905828744173, "pos_vert_variance": 5.529962800210342e-05, "compass_variance": 0.014064370654523373, "terrain_alt_variance": 0.0, "airspeed_variance": 0.0}}
{"timestamp": 1772983885.375863, "type": "LOCAL_POSITION_NED", "data": {"mavpackettype": "LOCAL_POSITION_NED", "time_boot_ms": 460445042, "x": -0.012208957225084305, "y": 0.06450322270393372, "z": 0.006835510488599539, "vx": -0.0012477735290303826, "vy": 0.02385450154542923, "vz": 0.00019210913160350174}}
{"timestamp": 1772983885.3759644, "type": "VIBRATION", "data": {"mavpackettype": "VIBRATION", "time_usec": 460445042449, "vibration_x": 0.0028695412911474705, "vibration_y": 0.002463952172547579, "vibration_z": 0.0026045057456940413, "clipping_0": 0, "clipping_1": 0, "clipping_2": 0}}
{"timestamp": 1772983885.3762746, "type": "BATTERY_STATUS", "data": {"mavpackettype": "BATTERY_STATUS", "id": 0, "battery_function": 0, "type": 0, "temperature": 32767, "voltages": [12600, 65535, 65535, 65535, 65535, 65535, 65535, 65535, 65535, 65535], "current_battery": 0, "current_consumed": 1600, "energy_consumed": 726, "battery_remaining": 51, "time_remaining": 0, "charge_state": 1, "voltages_ext": [0, 0, 0, 0], "mode": 0, "fault_bitmask": 0}}
{"timestamp": 1772983885.3764596, "type": "ESC_TELEMETRY_1_TO_4", "data": {"mavpackettype": "ESC_TELEMETRY_1_TO_4", "temperature": [32, 32, 32, 32], "voltage": [1679, 1679, 1679, 1679], "current": [80, 80, 80, 80], "totalcurrent": [1, 1, 1, 1], "rpm": [0, 0, 0, 0], "count": [19456, 19456, 19456, 19456]}}
{"timestamp": 1772983885.419767, "type": "AHRS", "data": {"mavpackettype": "AHRS", "omegaIx": -0.0031981086358428, "omegaIy": -0.0032115133944898844, "omegaIz": -0.0026882821694016457, "accel_weight": 0.0, "renorm_val": 0.0, "error_rp": 0.0023690166417509317, "error_yaw": 0.0015227710828185081}}
{"timestamp": 1772983885.4199445, "type": "AHRS2", "data": {"mavpackettype": "AHRS2", "roll": 0.0018015963723883033, "pitch": 0.0016000844771042466, "yaw": -0.7511757612228394, "altitude": 584.0800170898438, "lat": -353632622, "lng": 1491652379}}
{"timestamp": 1772983885.420097, "type": "ATTITUDE", "data": {"mavpackettype": "ATTITUDE", "time_boot_ms": 460445292, "roll": 0.004708648659288883, "pitch": 0.00145838619209826, "yaw": -0.734705924987793, "rollspeed": 0.00023519247770309448, "pitchspeed": 0.00027832272462546825, "yawspeed": 0.0008941111154854298}}
{"timestamp": 1772983885.4208925, "type": "GLOBAL_POSITION_INT", "data": {"mavpackettype": "GLOBAL_POSITION_INT", "time_boot_ms": 460445292, "lat": -353632622, "lon": 1491652381, "alt": 584080, "relative_alt": 3, "vx": 0, "vy": 2, "vz": 0, "hdg": 31791}}
{"timestamp": 1772983885.4214327, "type": "VFR_HUD", "data": {"mavpackettype": "VFR_HUD", "airspeed": 0.023803476244211197, "groundspeed": 0.02380252629518509, "heading": 317, "throttle": 0, "alt": 584.0800170898438, "climb": -0.00021259671484585851}}
{"timestamp": 1772983885.4219975, "type": "SYS_STATUS", "data": {"mavpackettype": "SYS_STATUS", "onboard_control_sensors_present": 1399979055, "onboard_control_sensors_enabled": 1382128687, "onboard_control_sensors_health": 1467063343, "load": 0, "voltage_battery": 12600, "current_battery": 0, "battery_remaining": 51, "drop_rate_comm": 0, "errors_comm": 0, "errors_count1": 0, "errors_count2": 0, "errors_count3": 0, "errors_count4": 0}}
{"timestamp": 1772983885.422696, "type": "POWER_STATUS", "data": {"mavpackettype": "POWER_STATUS", "Vcc": 5000, "Vservo": 0, "flags": 0}}
{"timestamp": 1772983885.423083, "type": "MEMINFO", "data": {"mavpackettype": "MEMINFO", "brkval": 0, "freemem": 65535, "freemem32": 524288}}
{"timestamp": 1772983885.423258, "type": "NAV_CONTROLLER_OUTPUT", "data": {"mavpackettype": "NAV_CONTROLLER_OUTPUT", "nav_roll": -0.0001321756571996957, "nav_pitch": -2.4935974579420872e-05, "nav_bearing": -42, "target_bearing": 0, "wp_dist": 0, "alt_error": 0.0, "aspd_error": 0.0, "xtrack_error": 0.0}}
{"timestamp": 1772983885.4236372, "type": "MISSION_CURRENT", "data": {"mavpackettype": "MISSION_CURRENT", "seq": 0, "total": 1, "mission_state": 2, "mission_mode": 0}}
{"timestamp": 1772983885.4249036, "type": "SERVO_OUTPUT_RAW", "data": {"mavpackettype": "SERVO_OUTPUT_RAW", "time_usec": 883791677, "port": 0, "servo1_raw": 1000, "servo2_raw": 1000, "servo3_raw": 1000, "servo4_raw": 1000, "servo5_raw": 0, "servo6_raw": 0, "servo7_raw": 0, "servo8_raw": 0, "servo9_raw": 0, "servo10_raw": 0, "servo11_raw": 0, "servo12_raw": 0, "servo13_raw": 0, "servo14_raw": 0, "servo15_raw": 0, "servo16_raw": 0}}
{"timestamp": 1772983885.4250402, "type": "RC_CHANNELS", "data": {"mavpackettype": "RC_CHANNELS", "time_boot_ms": 460445292, "chancount": 8, "chan1_raw": 1500, "chan2_raw": 1500, "chan3_raw": 1000, "chan4_raw": 1500, "chan5_raw": 1800, "chan6_raw": 1000, "chan7_raw": 1000, "chan8_raw": 1800, "chan9_raw": 0, "chan10_raw": 0, "chan11_raw": 0, "chan12_raw": 0, "chan13_raw": 0, "chan14_raw": 0, "chan15_raw": 0, "chan16_raw": 0, "chan17_raw": 0, "chan18_raw": 0, "rssi": 255}}
{"timestamp": 1772983885.4252515, "type": "RAW_IMU", "data": {"mavpackettype": "RAW_IMU", "time_usec": 460445292349, "xacc": 0, "yacc": 0, "zacc": -1001, "xgyro": 3, "ygyro": 3, "zgyro": 3, "xmag": 134, "ymag": 196, "zmag": -528, "id": 0, "temperature": 4500}}
{"timestamp": 1772983885.4258165, "type": "SCALED_IMU2", "data": {"mavpackettype": "SCALED_IMU2", "time_boot_ms": 460445292, "xacc": 0, "yacc": 0, "zacc": -1001, "xgyro": 3, "ygyro": 3, "zgyro": 3, "xmag": 134, "ymag": 196, "zmag": -528, "temperature": 4500}}
{"timestamp": 1772983885.4259799, "type": "SCALED_IMU3", "data": {"mavpackettype": "SCALED_IMU3", "time_boot_ms": 460445292, "xacc": 0, "yacc": 0, "zacc": 0, "xgyro": 0, "ygyro": 0, "zgyro": 0, "xmag": 134, "ymag": 196, "zmag": -528, "temperature": 0}}
{"timestamp": 1772983885.426214, "type": "SCALED_PRESSURE", "data": {"mavpackettype": "SCALED_PRESSURE", "time_boot_ms": 460445292, "press_abs": 945.0282592773438, "press_diff": 0.0, "temperature": 3120, "temperature_press_diff": 0}}
{"timestamp": 1772983885.4265563, "type": "SCALED_PRESSURE2", "data": {"mavpackettype": "SCALED_PRESSURE2", "time_boot_ms": 460445292, "press_abs": 945.034912109375, "press_diff": 0.0, "temperature": 3120, "temperature_press_diff": 0}}
{"timestamp": 1772983885.4267926, "type": "GPS_RAW_INT", "data": {"mavpackettype": "GPS_RAW_INT", "time_usec": 460445163000, "fix_type": 6, "lat": -353632622, "lon": 1491652379, "alt": 584090, "eph": 121, "epv": 200, "vel": 0, "cog": 22939, "satellites_visible": 10, "alt_ellipsoid": 584090, "h_acc": 300, "v_acc": 300, "vel_acc": 0, "hdg_acc": 0, "yaw": 0}}
{"timestamp": 1772983885.427122, "type": "SYSTEM_TIME", "data": {"mavpackettype": "SYSTEM_TIME", "time_unix_usec": 1772843015129286, "time_boot_ms": 460445292}}
{"timestamp": 1772983885.427243, "type": "SIMSTATE", "data": {"mavpackettype": "SIMSTATE", "roll": 0.0, "pitch": 0.0, "yaw": -0.747543454170227, "xacc": -1.2433897855735815e-21, "yacc": 4.2614244895457925e-21, "zacc": -9.806650161743164, "xgyro": 8.407790785948902e-43, "ygyro": 8.407790785948902e-43, "zgyro": 8.940695806813892e-06, "lat": -353632622, "lng": 1491652379}}
{"timestamp": 1772983885.4275126, "type": "WIND", "data": {"mavpackettype": "WIND", "direction": -180.0, "speed": 0.0, "speed_z": 0.0}}
{"timestamp": 1772983885.4278197, "type": "TERRAIN_REPORT", "data": {"mavpackettype": "TERRAIN_REPORT", "lat": -353632622, "lon": 1491652381, "spacing": 100, "terrain_height": 584.0800170898438, "current_height": 0.0, "pending": 0, "loaded": 616}}
{"timestamp": 1772983885.4281595, "type": "EKF_STATUS_REPORT", "data": {"mavpackettype": "EKF_STATUS_REPORT", "flags": 831, "velocity_variance": 0.008815843611955643, "pos_horiz_variance": 0.005186464171856642, "pos_vert_variance": 5.295398659654893e-05, "compass_variance": 0.013996402733027935, "terrain_alt_variance": 0.0, "airspeed_variance": 0.0}}
{"timestamp": 1772983885.428594, "type": "LOCAL_POSITION_NED", "data": {"mavpackettype": "LOCAL_POSITION_NED", "time_boot_ms": 460445292, "x": -0.012193338014185429, "y": 0.06447437405586243, "z": 0.00681669544428587, "vx": -0.0012840117560699582, "vy": 0.02376786805689335, "vz": 0.00021259671484585851}}
{"timestamp": 1772983885.428776, "type": "VIBRATION", "data": {"mavpackettype": "VIBRATION", "time_usec": 460445292349, "vibration_x": 0.0028131844010204077, "vibration_y": 0.0027312072925269604, "vibration_z": 0.0027691160794347525, "clipping_0": 0, "clipping_1": 0, "clipping_2": 0}}
{"timestamp": 1772983885.4290688, "type": "BATTERY_STATUS", "data": {"mavpackettype": "BATTERY_STATUS", "id": 0, "battery_function": 0, "type": 0, "temperature": 32767, "voltages": [12600, 65535, 65535, 65535, 65535, 65535, 65535, 65535, 65535, 65535], "current_battery": 0, "current_consumed": 1600, "energy_consumed": 726, "battery_remaining": 51, "time_remaining": 0, "charge_state": 1, "voltages_ext": [0, 0, 0, 0], "mode": 0, "fault_bitmask": 0}}
{"timestamp": 1772983885.4292243, "type": "ESC_TELEMETRY_1_TO_4", "data": {"mavpackettype": "ESC_TELEMETRY_1_TO_4", "temperature": [32, 32, 32, 32], "voltage": [1679, 1679, 1679, 1679], "current": [80, 80, 80, 80], "totalcurrent": [1, 1, 1, 1], "rpm": [0, 0, 0, 0], "count": [19556, 19556, 19556, 19556]}}
{"timestamp": 1772983885.4583805, "type": "FLIGHT_INFORMATION", "data": {"mavpackettype": "FLIGHT_INFORMATION", "time_boot_ms": 460445482, "arming_time_utc": 0, "takeoff_time_utc": 0, "flight_uuid": 0}}
{"timestamp": 1772983885.4710538, "type": "AHRS", "data": {"mavpackettype": "AHRS", "omegaIx": -0.0032009854912757874, "omegaIy": -0.003214398631826043, "omegaIz": -0.0026912190951406956, "accel_weight": 0.0, "renorm_val": 0.0, "error_rp": 0.002373769413679838, "error_yaw": 0.001538496115244925}}
{"timestamp": 1772983885.4712045, "type": "AHRS2", "data": {"mavpackettype": "AHRS2", "roll": 0.0018109340453520417, "pitch": 0.001605172990821302, "yaw": -0.7511618733406067, "altitude": 584.0800170898438, "lat": -353632622, "lng": 1491652379}}
{"timestamp": 1772983885.471306, "type": "ATTITUDE", "data": {"mavpackettype": "ATTITUDE", "time_boot_ms": 460445542, "roll": 0.004712969530373812, "pitch": 0.0014571517240256071, "yaw": -0.7347068190574646, "rollspeed": 0.0003092281986027956, "pitchspeed": 0.00029424834065139294, "yawspeed": 0.0008859625086188316}}
{"timestamp": 1772983885.4716163, "type": "GLOBAL_POSITION_INT", "data": {"mavpackettype": "GLOBAL_POSITION_INT", "time_boot_ms": 460445542, "lat": -353632622, "lon": 1491652381, "alt": 584080, "relative_alt": 3, "vx": 0, "vy": 2, "vz": 0, "hdg": 31791}}
{"timestamp": 1772983885.4717276, "type": "VFR_HUD", "data": {"mavpackettype": "VFR_HUD", "airspeed": 0.02390475943684578, "groundspeed": 0.023904340341687202, "heading": 317, "throttle": 0, "alt": 584.0800170898438, "climb": -0.00014161987928673625}}
{"timestamp": 1772983885.4721794, "type": "SYS_STATUS", "data": {"mavpackettype": "SYS_STATUS", "onboard_control_sensors_present": 1399979055, "onboard_control_sensors_enabled": 1382128687, "onboard_control_sensors_health": 1467063343, "load": 0, "voltage_battery": 12600, "current_battery": 0, "battery_remaining": 51, "drop_rate_comm": 0, "errors_comm": 0, "errors_count1": 0, "errors_count2": 0, "errors_count3": 0, "errors_count4": 0}}
{"timestamp": 1772983885.4724903, "type": "POWER_STATUS", "data": {"mavpackettype": "POWER_STATUS", "Vcc": 5000, "Vservo": 0, "flags": 0}}
{"timestamp": 1772983885.4727304, "type": "MEMINFO", "data": {"mavpackettype": "MEMINFO", "brkval": 0, "freemem": 65535, "freemem32": 524288}}
{"timestamp": 1772983885.4728773, "type": "NAV_CONTROLLER_OUTPUT", "data": {"mavpackettype": "NAV_CONTROLLER_OUTPUT", "nav_roll": -0.00013217561354395002, "nav_pitch": -2.4935961846495047e-05, "nav_bearing": -42, "target_bearing": 0, "wp_dist": 0, "alt_error": 0.0, "aspd_error": 0.0, "xtrack_error": 0.0}}
{"timestamp": 1772983885.473018, "type": "MISSION_CURRENT", "data": {"mavpackettype": "MISSION_CURRENT", "seq": 0, "total": 1, "mission_state": 2, "mission_mode": 0}}
{"timestamp": 1772983885.4731688, "type": "SERVO_OUTPUT_RAW", "data": {"mavpackettype": "SERVO_OUTPUT_RAW", "time_usec": 884041577, "port": 0, "servo1_raw": 1000, "servo2_raw": 1000, "servo3_raw": 1000, "servo4_raw": 1000, "servo5_raw": 0, "servo6_raw": 0, "servo7_raw": 0, "servo8_raw": 0, "servo9_raw": 0, "servo10_raw": 0, "servo11_raw": 0, "servo12_raw": 0, "servo13_raw": 0, "servo14_raw": 0, "servo15_raw": 0, "servo16_raw": 0}}
{"timestamp": 1772983885.4732103, "type": "RC_CHANNELS", "data": {"mavpackettype": "RC_CHANNELS", "time_boot_ms": 460445542, "chancount": 8, "chan1_raw": 1500, "chan2_raw": 1500, "chan3_raw": 1000, "chan4_raw": 1500, "chan5_raw": 1800, "chan6_raw": 1000, "chan7_raw": 1000, "chan8_raw": 1800, "chan9_raw": 0, "chan10_raw": 0, "chan11_raw": 0, "chan12_raw": 0, "chan13_raw": 0, "chan14_raw": 0, "chan15_raw": 0, "chan16_raw": 0, "chan17_raw": 0, "chan18_raw": 0, "rssi": 255}}
{"timestamp": 1772983885.473325, "type": "RAW_IMU", "data": {"mavpackettype": "RAW_IMU", "time_usec": 460445542249, "xacc": 0, "yacc": 0, "zacc": -1001, "xgyro": 3, "ygyro": 3, "zgyro": 3, "xmag": 134, "ymag": 196, "zmag": -528, "id": 0, "temperature": 4500}}
{"timestamp": 1772983885.4734867, "type": "SCALED_IMU2", "data": {"mavpackettype": "SCALED_IMU2", "time_boot_ms": 460445542, "xacc": 0, "yacc": 0, "zacc": -1001, "xgyro": 3, "ygyro": 3, "zgyro": 3, "xmag": 134, "ymag": 196, "zmag": -528, "temperature": 4500}}
{"timestamp": 1772983885.4735653, "type": "SCALED_IMU3", "data": {"mavpackettype": "SCALED_IMU3", "time_boot_ms": 460445542, "xacc": 0, "yacc": 0, "zacc": 0, "xgyro": 0, "ygyro": 0, "zgyro": 0, "xmag": 134, "ymag": 196, "zmag": -528, "temperature": 0}}
{"timestamp": 1772983885.4738078, "type": "SCALED_PRESSURE", "data": {"mavpackettype": "SCALED_PRESSURE", "time_boot_ms": 460445542, "press_abs": 945.0282592773438, "press_diff": 0.0, "temperature": 3120, "temperature_press_diff": 0}}
{"timestamp": 1772983885.4739778, "type": "SCALED_PRESSURE2", "data": {"mavpackettype": "SCALED_PRESSURE2", "time_boot_ms": 460445542, "press_abs": 945.0402221679688, "press_diff": 0.0, "temperature": 3120, "temperature_press_diff": 0}}
{"timestamp": 1772983885.4741168, "type": "GPS_RAW_INT", "data": {"mavpackettype": "GPS_RAW_INT", "time_usec": 460445363000, "fix_type": 6, "lat": -353632622, "lon": 1491652379, "alt": 584090, "eph": 121, "epv": 200, "vel": 0, "cog": 22939, "satellites_visible": 10, "alt_ellipsoid": 584090, "h_acc": 300, "v_acc": 300, "vel_acc": 0, "hdg_acc": 0, "yaw": 0}}
{"timestamp": 1772983885.474336, "type": "SYSTEM_TIME", "data": {"mavpackettype": "SYSTEM_TIME", "time_unix_usec": 1772843015379186, "time_boot_ms": 460445542}}
{"timestamp": 1772983885.474495, "type": "SIMSTATE", "data": {"mavpackettype": "SIMSTATE", "roll": 0.0, "pitch": 0.0, "yaw": -0.747543454170227, "xacc": -1.2433897855735815e-21, "yacc": 4.2614244895457925e-21, "zacc": -9.806650161743164, "xgyro": 8.407790785948902e-43, "ygyro": 8.407790785948902e-43, "zgyro": 8.940695806813892e-06, "lat": -353632622, "lng": 1491652379}}
{"timestamp": 1772983885.4746075, "type": "WIND", "data": {"mavpackettype": "WIND", "direction": -180.0, "speed": 0.0, "speed_z": 0.0}}
{"timestamp": 1772983885.4748704, "type": "TERRAIN_REPORT", "data": {"mavpackettype": "TERRAIN_REPORT", "lat": -353632622, "lon": 1491652381, "spacing": 100, "terrain_height": 584.0800170898438, "current_height": 0.0, "pending": 0, "loaded": 616}}
{"timestamp": 1772983885.474962, "type": "EKF_STATUS_REPORT", "data": {"mavpackettype": "EKF_STATUS_REPORT", "flags": 831, "velocity_variance": 0.008803756907582283, "pos_horiz_variance": 0.005188006907701492, "pos_vert_variance": 5.162670277059078e-05, "compass_variance": 0.013993826694786549, "terrain_alt_variance": 0.0, "airspeed_variance": 0.0}}
{"timestamp": 1772983885.4751167, "type": "LOCAL_POSITION_NED", "data": {"mavpackettype": "LOCAL_POSITION_NED", "time_boot_ms": 460445542, "x": -0.012195275165140629, "y": 0.06465113162994385, "z": 0.0067926691845059395, "vx": -0.0012823640136048198, "vy": 0.023869918659329414, "vz": 0.00014161987928673625}}
{"timestamp": 1772983885.4751756, "type": "VIBRATION", "data": {"mavpackettype": "VIBRATION", "time_usec": 460445542249, "vibration_x": 0.0028902972117066383, "vibration_y": 0.002780066803097725, "vibration_z": 0.0029097222723066807, "clipping_0": 0, "clipping_1": 0, "clipping_2": 0}}
{"timestamp": 1772983885.4752648, "type": "BATTERY_STATUS", "data": {"mavpackettype": "BATTERY_STATUS", "id": 0, "battery_function": 0, "type": 0, "temperature": 32767, "voltages": [12600, 65535, 65535, 65535, 65535, 65535, 65535, 65535, 65535, 65535], "current_battery": 0, "current_consumed": 1600, "energy_consumed": 726, "battery_remaining": 51, "time_remaining": 0, "charge_state": 1, "voltages_ext": [0, 0, 0, 0], "mode": 0, "fault_bitmask": 0}}
{"timestamp": 1772983885.4753144, "type": "ESC_TELEMETRY_1_TO_4", "data": {"mavpackettype": "ESC_TELEMETRY_1_TO_4", "temperature": [32, 32, 32, 32], "voltage": [1679, 1679, 1679, 1679], "current": [80, 80, 80, 80], "totalcurrent": [1, 1, 1, 1], "rpm": [0, 0, 0, 0], "count": [19656, 19656, 19656, 19656]}}
{"timestamp": 1772983885.5215614, "type": "AHRS", "data": {"mavpackettype": "AHRS", "omegaIx": -0.003202564548701048, "omegaIy": -0.00321599212475121, "omegaIz": -0.0026921138633042574, "accel_weight": 0.0, "renorm_val": 0.0, "error_rp": 0.0023779417388141155, "error_yaw": 0.0015692991437390447}}
{"timestamp": 1772983885.5217772, "type": "AHRS2", "data": {"mavpackettype": "AHRS2", "roll": 0.0018151537515223026, "pitch": 0.0016129043651744723, "yaw": -0.7511584758758545, "altitude": 584.0800170898438, "lat": -353632622, "lng": 1491652379}}
{"timestamp": 1772983885.5222666, "type": "ATTITUDE", "data": {"mavpackettype": "ATTITUDE", "time_boot_ms": 460445792, "roll": 0.0047163041308522224, "pitch": 0.0014593221712857485, "yaw": -0.7347042560577393, "rollspeed": 0.00031297747045755386, "pitchspeed": 0.00026876386255025864, "yawspeed": 0.0009425424505025148}}
{"timestamp": 1772983885.522576, "type": "GLOBAL_POSITION_INT", "data": {"mavpackettype": "GLOBAL_POSITION_INT", "time_boot_ms": 460445792, "lat": -353632622, "lon": 1491652381, "alt": 584080, "relative_alt": 3, "vx": 0, "vy": 2, "vz": 0, "hdg": 31791}}
{"timestamp": 1772983885.522894, "type": "VFR_HUD", "data": {"mavpackettype": "VFR_HUD", "airspeed": 0.02396700158715248, "groundspeed": 0.023966895416378975, "heading": 317, "throttle": 0, "alt": 584.0800170898438, "climb": -7.19458403182216e-05}}
{"timestamp": 1772983885.5239308, "type": "SYS_STATUS", "data": {"mavpackettype": "SYS_STATUS", "onboard_control_sensors_present": 1399979055, "onboard_control_sensors_enabled": 1382128687, "onboard_control_sensors_health": 1467063343, "load": 0, "voltage_battery": 12600, "current_battery": 0, "battery_remaining": 51, "drop_rate_comm": 0, "errors_comm": 0, "errors_count1": 0, "errors_count2": 0, "errors_count3": 0, "errors_count4": 0}}
{"timestamp": 1772983885.5246267, "type": "POWER_STATUS", "data": {"mavpackettype": "POWER_STATUS", "Vcc": 5000, "Vservo": 0, "flags": 0}}
{"timestamp": 1772983885.5248969, "type": "MEMINFO", "data": {"mavpackettype": "MEMINFO", "brkval": 0, "freemem": 65535, "freemem32": 524288}}
{"timestamp": 1772983885.5253308, "type": "NAV_CONTROLLER_OUTPUT", "data": {"mavpackettype": "NAV_CONTROLLER_OUTPUT", "nav_roll": -0.00013217561354395002, "nav_pitch": -2.493595275154803e-05, "nav_bearing": -42, "target_bearing": 0, "wp_dist": 0, "alt_error": 0.0, "aspd_error": 0.0, "xtrack_error": 0.0}}
{"timestamp": 1772983885.5255823, "type": "MISSION_CURRENT", "data": {"mavpackettype": "MISSION_CURRENT", "seq": 0, "total": 1, "mission_state": 2, "mission_mode": 0}}
{"timestamp": 1772983885.5272532, "type": "SERVO_OUTPUT_RAW", "data": {"mavpackettype": "SERVO_OUTPUT_RAW", "time_usec": 884292310, "port": 0, "servo1_raw": 1000, "servo2_raw": 1000, "servo3_raw": 1000, "servo4_raw": 1000, "servo5_raw": 0, "servo6_raw": 0, "servo7_raw": 0, "servo8_raw": 0, "servo9_raw": 0, "servo10_raw": 0, "servo11_raw": 0, "servo12_raw": 0, "servo13_raw": 0, "servo14_raw": 0, "servo15_raw": 0, "servo16_raw": 0}}
{"timestamp": 1772983885.5272949, "type": "RC_CHANNELS", "data": {"mavpackettype": "RC_CHANNELS", "time_boot_ms": 460445792, "chancount": 8, "chan1_raw": 1500, "chan2_raw": 1500, "chan3_raw": 1000, "chan4_raw": 1500, "chan5_raw": 1800, "chan6_raw": 1000, "chan7_raw": 1000, "chan8_raw": 1800, "chan9_raw": 0, "chan10_raw": 0, "chan11_raw": 0, "chan12_raw": 0, "chan13_raw": 0, "chan14_raw": 0, "chan15_raw": 0, "chan16_raw": 0, "chan17_raw": 0, "chan18_raw": 0, "rssi": 255}}
{"timestamp": 1772983885.5273354, "type": "RAW_IMU", "data": {"mavpackettype": "RAW_IMU", "time_usec": 460445792982, "xacc": 0, "yacc": 0, "zacc": -1001, "xgyro": 3, "ygyro": 3, "zgyro": 3, "xmag": 134, "ymag": 196, "zmag": -528, "id": 0, "temperature": 4500}}
{"timestamp": 1772983885.5273669, "type": "SCALED_IMU2", "data": {"mavpackettype": "SCALED_IMU2", "time_boot_ms": 460445792, "xacc": 0, "yacc": 0, "zacc": -1001, "xgyro": 3, "ygyro": 3, "zgyro": 3, "xmag": 134, "ymag": 196, "zmag": -528, "temperature": 4500}}
{"timestamp": 1772983885.5273921, "type": "SCALED_IMU3", "data": {"mavpackettype": "SCALED_IMU3", "time_boot_ms": 460445792, "xacc": 0, "yacc": 0, "zacc": 0, "xgyro": 0, "ygyro": 0, "zgyro": 0, "xmag": 134, "ymag": 196, "zmag": -528, "temperature": 0}}
{"timestamp": 1772983885.5274155, "type": "SCALED_PRESSURE", "data": {"mavpackettype": "SCALED_PRESSURE", "time_boot_ms": 460445792, "press_abs": 945.0282592773438, "press_diff": 0.0, "temperature": 3120, "temperature_press_diff": 0}}
{"timestamp": 1772983885.5274386, "type": "SCALED_PRESSURE2", "data": {"mavpackettype": "SCALED_PRESSURE2", "time_boot_ms": 460445792, "press_abs": 945.0161743164062, "press_diff": 0.0, "temperature": 3120, "temperature_press_diff": 0}}
{"timestamp": 1772983885.5275342, "type": "GPS_RAW_INT", "data": {"mavpackettype": "GPS_RAW_INT", "time_usec": 460445763000, "fix_type": 6, "lat": -353632622, "lon": 1491652379, "alt": 584090, "eph": 121, "epv": 200, "vel": 0, "cog": 22939, "satellites_visible": 10, "alt_ellipsoid": 584090, "h_acc": 300, "v_acc": 300, "vel_acc": 0, "hdg_acc": 0, "yaw": 0}}
